location,country_code,latitude,longitude,confirmed,dead,recovered,updated
Libya,ly,26.3351,17.228331,61,3,18,2020-05-01 12:50:12.441684+00:00
United States,us,37.09024,-95.712891,1095651,63871,155737,2020-05-01 12:50:04.910265+00:00
Tajikistan,tj,38.861034,71.276093,15,0,0,2020-05-01 12:50:13.452426+00:00
Spain,es,40.463667,-3.74922,239639,24824,137984,2020-05-01 12:50:04.995206+00:00
Italy,it,41.87194,12.56738,205463,27967,75945,2020-05-01 12:50:05.049141+00:00
Nicaragua,ni,12.865416,-85.207229,14,4,7,2020-05-01 12:50:13.515206+00:00
Coral Princess,11,26.648165,-82.035419,12,2,0,2020-04-16 08:20:13.637832+00:00
Iran,ir,32.427908,53.688046,95646,6091,76318,2020-05-01 12:50:05.303375+00:00
Guadeloupe,gp,16.265,-61.551,152,12,95,2020-05-01 12:50:22.128173+00:00
Belgium,be,50.503887,4.469936,49032,7703,11892,2020-05-01 12:50:05.484496+00:00
Trinidad and Tobago,tt,10.691803,-61.222503,116,8,73,2020-05-01 12:50:22.605226+00:00
Austria,at,47.516231,14.550072,15531,589,13110,2020-05-01 12:50:06.168075+00:00
Qatar,qa,25.354826,51.183884,14096,12,1436,2020-05-01 12:50:06.307917+00:00
Australia,au,-25.274398,133.775136,6767,93,5745,2020-05-01 12:50:06.903462+00:00
Sao Tome and Principe,st,0.18636,6.613081,16,1,4,2020-05-01 12:50:24.269487+00:00
Saint Kitts and Nevis,kn,17.357822,-62.782998,15,0,6,2020-05-01 12:50:24.510895+00:00
Guantanamo Bay,10,19.9030921,-75.0966509,1,0,0,2020-04-19 13:40:13.731565+00:00
Turks and Caicos,tc,21.694025,-71.797928,12,1,5,2020-05-01 12:50:24.711242+00:00
South Africa,za,-30.559482,22.937506,5647,103,2073,2020-05-01 12:51:48.372193+00:00
USS Theodore Roosevelt,09,0.0,0.0,1102,1,53,2020-05-01 12:50:08.855743+00:00
Transnistria,04,47.2152972,29.4638054,58,3,0,2020-04-08 10:20:29.734534+00:00
Donetsk People's Republic,08,48.015883,37.80285,18,0,0,2020-04-11 15:00:28.299265+00:00
Luhansk People's Republic,07,48.574041,39.307815,8,0,1,2020-04-11 15:00:29.703543+00:00
Antigua and Barbuda,ag,17.060816,-61.796428,24,3,11,2020-05-01 12:50:23.827715+00:00
Gambia,gm,13.443182,-15.310139,12,1,8,2020-05-01 12:50:24.663549+00:00
Russia,ru,61.52401,105.318756,114431,1169,13220,2020-05-01 12:50:05.232317+00:00
Ecuador,ec,-1.831239,-78.183406,24934,900,1806,2020-05-01 12:50:05.706333+00:00
Pakistan,pk,30.375321,69.345116,17439,391,4315,2020-05-01 12:50:05.960896+00:00
Chile,cl,-35.675147,-71.542969,16023,227,8580,2020-05-01 12:50:06.060138+00:00
Japan,jp,36.204824,138.252924,14516,466,3466,2020-05-01 12:50:06.256237+00:00
Poland,pl,51.919438,19.145136,13105,651,3491,2020-05-01 12:50:06.395811+00:00
Romania,ro,45.943161,24.96676,12567,726,4328,2020-05-01 12:50:06.440673+00:00
Colombia,co,4.570868,-74.297333,6507,293,1439,2020-05-01 12:50:06.990031+00:00
Kuwait,kw,29.31166,47.481766,4377,30,1602,2020-05-01 12:50:07.376910+00:00
Algeria,dz,28.033886,1.659626,4006,450,1779,2020-05-01 12:50:07.440829+00:00
Hungary,hu,47.162494,19.5033041,2863,323,609,2020-05-01 12:50:07.726152+00:00
Afghanistan,af,33.93911,67.709953,2335,68,310,2020-05-01 12:50:07.853525+00:00
Armenia,am,40.069099,45.038189,2148,33,977,2020-05-01 12:50:07.893481+00:00
North Macedonia,mk,41.608635,21.745275,1494,81,807,2020-05-01 12:50:08.505600+00:00
Costa Rica,cr,9.748917,-83.753428,719,6,338,2020-05-01 12:50:09.620996+00:00
Niger,ne,17.607789,8.081666,719,32,452,2020-05-01 12:50:09.679671+00:00
Jordan,jo,30.585164,36.238414,453,8,362,2020-05-01 12:50:10.305427+00:00
Seychelles,sc,-4.679574,55.491977,11,0,7,2020-05-01 12:50:13.768956+00:00
French Guiana,gf,3.933889,-53.125782,128,1,98,2020-05-01 12:50:22.444262+00:00
Saint Martin,mf,18.0708298,-63.0500809,38,3,27,2020-05-01 12:50:23.635833+00:00
India,in,20.593684,78.96288,35365,1154,9068,2020-05-01 12:50:05.576465+00:00
Benin,bj,9.30769,2.315834,64,1,33,2020-05-01 12:50:12.403058+00:00
St. Vincent Grenadines,vc,12.984305,-61.287228,16,0,8,2020-05-01 12:50:24.469737+00:00
Singapore,sg,1.352083,103.819836,17101,15,1244,2020-05-01 12:50:06.012923+00:00
South Korea,kr,35.907757,127.766922,10774,248,9072,2020-05-01 12:50:06.522066+00:00
Serbia,rs,44.016521,21.005859,9009,179,1343,2020-05-01 12:50:06.674131+00:00
Philippines,ph,12.879721,121.774017,8772,579,1084,2020-05-01 12:50:06.719476+00:00
Dominican Republic,do,18.735693,-70.162651,6972,301,1301,2020-05-01 12:50:06.856625+00:00
Panama,pa,8.537981,-80.782127,6532,188,576,2020-05-01 12:50:06.944444+00:00
Egypt,eg,26.820553,30.802498,5537,392,1381,2020-05-01 12:50:07.129729+00:00
Luxembourg,lu,49.815273,6.129583,3784,90,3213,2020-05-01 12:50:07.527535+00:00
Bahrain,bh,26.0667,50.5577,3040,8,1500,2020-05-01 12:50:07.633256+00:00
Thailand,th,15.870032,100.992541,2960,54,2719,2020-05-01 12:50:07.680720+00:00
Greece,gr,39.074208,21.824312,2591,140,1374,2020-05-01 12:50:07.769756+00:00
Iraq,iq,33.223191,43.679291,2085,93,1375,2020-05-01 12:50:07.939138+00:00
Croatia,hr,45.1,15.2000001,2085,75,1421,2020-05-01 12:50:07.981800+00:00
Iceland,is,64.963051,-19.020835,1797,10,1670,2020-05-01 12:50:08.259605+00:00
Slovenia,si,46.151241,14.995463,1434,92,233,2020-05-01 12:50:08.557881+00:00
Taiwan,tw,23.69781,120.960515,429,6,324,2020-05-01 12:50:10.382176+00:00
El Salvador,sv,13.794185,-88.89653,424,10,124,2020-05-01 12:50:10.425861+00:00
Venezuela,ve,6.42375,-66.58973,333,16,142,2020-05-01 12:50:10.643952+00:00
Congo,cg,-0.228021,15.827659,220,9,19,2020-05-01 12:50:11.096148+00:00
Sint Maarten,sx,18.04248,-63.05483,76,13,44,2020-05-01 12:50:12.187736+00:00
Cayman Islands,ky,19.3133,-81.2546,73,1,10,2020-05-01 12:50:12.319555+00:00
United Arab Emirates,ae,23.424076,53.847818,13038,111,2543,2020-05-01 12:50:06.354725+00:00
Bangladesh,bd,23.684994,90.356331,8238,170,174,2020-05-01 12:50:06.769667+00:00
Moldova,md,47.411631,28.369885,3897,122,1272,2020-05-01 12:50:07.486243+00:00
Kazakhstan,kz,48.019573,66.923684,3551,25,879,2020-05-01 12:50:07.573720+00:00
Lebanon,lb,33.854721,35.862285,729,24,192,2020-05-01 12:50:09.573887+00:00
Burkina Faso,bf,12.238333,-1.561593,645,43,506,2020-05-01 12:50:09.788776+00:00
San Marino,sm,43.94236,12.457777,580,41,82,2020-05-01 12:50:09.968819+00:00
Sudan,sd,12.862807,30.217636,442,31,39,2020-05-01 12:50:10.343242+00:00
Kenya,ke,-0.023559,37.906193,396,17,144,2020-05-01 12:50:10.553889+00:00
Gabon,ga,-0.803689,11.609444,276,3,67,2020-05-01 12:50:10.885928+00:00
Rwanda,rw,-1.940278,29.873888,243,0,104,2020-05-01 12:50:11.049997+00:00
Faroe Islands,fo,61.892635,-6.9118061,187,0,184,2020-05-01 12:50:11.186153+00:00
Sierra Leone,sl,8.460555,-11.779889,136,7,21,2020-05-01 12:50:11.429821+00:00
Madagascar,mg,-18.766947,46.869107,132,0,94,2020-05-01 12:50:11.516858+00:00
Cambodia,kh,12.565679,104.990963,122,0,119,2020-05-01 12:50:11.554997+00:00
Togo,tg,8.619543,0.824782,116,9,65,2020-05-01 12:50:11.651685+00:00
Bermuda,bm,32.3078,-64.7505,114,6,48,2020-05-01 12:50:11.694827+00:00
Aruba,aw,12.52111,-69.968338,100,2,79,2020-05-01 12:50:11.775001+00:00
Monaco,mc,43.7384176,7.4246158,95,4,64,2020-05-01 12:50:11.850402+00:00
Haiti,ht,18.971187,-72.285215,81,8,8,2020-05-01 12:50:12.058689+00:00
Syria,sy,34.802075,38.996815,43,3,21,2020-05-01 12:50:12.691539+00:00
Zimbabwe,zw,-19.015438,29.154857,40,4,5,2020-05-01 12:50:12.732550+00:00
Eritrea,er,15.179384,39.782334,39,0,26,2020-05-01 12:50:12.771201+00:00
Malawi,mw,-13.254308,34.301525,37,3,9,2020-05-01 12:50:12.858581+00:00
Germany,de,51.165691,10.451526,163162,6632,126900,2020-05-01 12:50:05.089240+00:00
France,fr,46.227638,2.213749,167178,24376,49476,2020-05-01 12:50:05.138493+00:00
Brazil,br,-14.235004,-51.92528,87187,6006,35935,2020-05-01 12:50:05.355383+00:00
Switzerland,ch,46.818188,8.227512,29705,1737,23400,2020-05-01 12:50:05.622718+00:00
Sweden,se,60.128161,18.643501,21520,2653,1005,2020-05-01 12:50:05.801748+00:00
Ireland,ie,53.1423672,-7.6920536,20612,1232,13386,2020-05-01 12:50:05.856237+00:00
Israel,il,31.046051,34.851612,16004,223,8758,2020-05-01 12:50:06.111766+00:00
Denmark,dk,56.26392,9.501785,9311,460,6729,2020-05-01 12:50:06.622100+00:00
Czech Republic,cz,49.817492,15.472962,7689,237,3314,2020-05-01 12:50:06.809330+00:00
Malaysia,my,4.210484,101.975766,6071,103,4210,2020-05-01 12:50:07.039455+00:00
Guinea-Bissau,gw,11.803749,-15.180413,205,1,19,2020-05-01 12:50:11.142651+00:00
Gibraltar,gi,36.140751,-5.353585,144,0,131,2020-05-01 12:50:11.266476+00:00
Liberia,lr,6.428055,-9.429499,141,16,45,2020-05-01 12:50:11.306814+00:00
Cape Verde,cv,16.5388,-23.0418,122,1,4,2020-05-01 12:50:11.606505+00:00
Eswatini,sz,-26.522503,31.465866,100,1,12,2020-05-01 12:50:11.807553+00:00
Guyana,gy,4.860416,-58.93018,82,9,22,2020-05-01 12:50:11.934201+00:00
Mozambique,mz,-18.665695,35.529562,76,0,12,2020-05-01 12:50:12.138878+00:00
Chad,td,15.454166,18.732207,73,5,33,2020-05-01 12:50:12.352616+00:00
Nepal,np,28.394857,84.124008,59,0,16,2020-05-01 12:50:12.486913+00:00
Morocco,ma,31.791702,-7.09262,4529,171,1055,2020-05-01 12:50:07.281500+00:00
Uzbekistan,uz,41.377491,64.585262,2075,9,1182,2020-05-01 12:50:08.080537+00:00
Lithuania,lt,55.169438,23.881275,1399,45,594,2020-05-01 12:50:08.652985+00:00
Mongolia,mn,46.862496,103.846656,38,0,10,2020-05-01 12:50:12.813737+00:00
Angola,ao,-11.202692,17.873887,27,2,7,2020-05-01 12:50:12.937908+00:00
East Timor,tl,-8.874217,125.727539,24,0,16,2020-05-01 12:50:12.981512+00:00
Botswana,bw,-22.328474,24.684866,23,1,5,2020-05-01 12:50:13.025895+00:00
Laos,la,19.85627,102.495496,19,0,8,2020-05-01 12:50:13.111452+00:00
Ivory Coast,ci,7.539989,-5.54708,1275,14,574,2020-05-01 12:50:08.691375+00:00
Belize,bz,17.189877,-88.49765,18,2,13,2020-05-01 12:50:13.152189+00:00
Fiji,fj,-17.713371,178.065032,18,0,12,2020-05-01 12:50:13.198644+00:00
MS Zaandam,03,0.0,0.0,9,2,0,2020-05-01 12:50:24.958479+00:00
New Zealand,nz,-40.900557,174.885971,1479,19,1252,2020-05-01 12:50:08.784350+00:00
Djibouti,dj,11.825138,42.590275,1097,2,672,2020-05-01 12:50:08.861472+00:00
Hong Kong,hk,22.3193039,114.1693611,1040,4,8459,2020-05-01 12:50:08.902427+00:00
Somalia,so,5.152149,46.199616,601,28,31,2020-05-01 12:50:09.876452+00:00
Palestine,ps,31.952162,35.233154,507,2,76,2020-05-01 12:50:10.064153+00:00
Mali,ml,17.570692,-3.996166,490,26,135,2020-05-01 12:50:10.160217+00:00
Tanzania,tz,-6.369028,34.888822,480,16,167,2020-05-01 12:50:10.225428+00:00
Maldives,mv,3.202778,73.22068,475,1,17,2020-05-01 12:50:10.604406+00:00
Equatorial Guinea,gq,1.650801,10.267895,315,1,9,2020-05-01 12:50:10.774284+00:00
Ethiopia,et,9.145,40.489673,133,3,66,2020-05-01 12:50:11.473297+00:00
Uganda,ug,1.373333,32.290275,83,0,52,2020-05-01 12:50:11.893277+00:00
Montserrat,ms,16.742498,-62.187366,11,1,3,2020-05-01 12:50:13.727361+00:00
Comoros,km,-11.6455,43.3333,1,0,0,2020-05-01 12:50:14.209134+00:00
Indonesia,id,-0.789275,113.921327,10551,800,1591,2020-05-01 12:50:06.566976+00:00
Finland,fi,61.92411,25.7481511,5051,218,3000,2020-05-01 12:50:07.235829+00:00
Puerto Rico,pr,18.220833,-66.590149,1118,60,0,2020-04-19 13:40:08.141421+00:00
St. Barth,bl,17.9,-62.833333,6,0,6,2020-05-01 12:50:25.197410+00:00
Saint Pierre Miquelon,pm,46.8852,-56.3159,1,0,0,2020-05-01 12:50:25.301776+00:00
Azerbaijan,az,40.143105,47.576927,1804,24,1325,2020-05-01 12:50:08.208918+00:00
Guinea,gn,9.945587,-9.696645,1495,7,329,2020-05-01 12:50:08.454225+00:00
Albania,al,41.153332,20.168331,773,31,470,2020-05-01 12:50:09.446289+00:00
Vietnam,vn,14.058324,108.277199,270,0,222,2020-05-01 12:50:10.927403+00:00
Myanmar,mm,21.916221,95.955974,151,6,28,2020-05-01 12:50:11.216999+00:00
Guam,gu,13.444304,144.793731,141,5,128,2020-05-01 12:50:11.353073+00:00
Turkey,tr,38.963745,35.243322,120204,3174,48886,2020-05-01 12:50:05.188760+00:00
China,cn,25.6113971,85.1392247,82874,4633,77642,2020-05-01 12:50:05.400855+00:00
Canada,ca,56.130366,-106.346771,53236,3184,21423,2020-05-01 12:50:05.443778+00:00
Portugal,pt,39.399872,-8.224454,25351,1007,1647,2020-05-01 12:50:05.666839+00:00
Saudi Arabia,sa,23.885942,45.079162,22753,162,3163,2020-05-01 12:50:05.759012+00:00
Mexico,mx,23.634501,-102.552784,19224,1859,11423,2020-05-01 12:50:05.910454+00:00
Bahamas,bs,25.03428,-77.39628,81,11,25,2020-05-01 12:50:12.096251+00:00
French Polynesia,pf,-17.679742,-149.406843,58,0,51,2020-05-01 12:50:12.555716+00:00
U.S. Virgin Islands,vi,18.335765,-64.896335,57,4,51,2020-05-01 12:50:12.589474+00:00
Central African Republic,cf,6.611111,20.939444,64,0,10,2020-05-01 12:50:12.620489+00:00
New Caledonia,nc,-20.904305,165.618042,18,0,17,2020-05-01 12:50:13.243416+00:00
Curaçao,cw,12.16957,-68.99002,16,1,13,2020-05-01 12:50:13.319463+00:00
Northern Mariana Islands ,mp,15.0979,145.6739,14,2,11,2020-05-01 12:50:13.553026+00:00
Akrotiri and Dhekelia,02,34.5802786,32.9743145,10,0,0,2020-04-12 08:00:27.601715+00:00
Peru,pe,-9.189967,-75.015152,36976,1051,10405,2020-05-01 12:50:05.527333+00:00
Ukraine,ua,48.379433,31.1655799,10861,272,1413,2020-05-01 12:50:06.481296+00:00
Argentina,ar,-38.416097,-63.616672,4428,218,1299,2020-05-01 12:50:07.327209+00:00
Estonia,ee,58.595272,25.0136071,1694,52,253,2020-05-01 12:50:08.303788+00:00
Bulgaria,bg,42.733883,25.48583,1541,66,276,2020-05-01 12:50:08.350408+00:00
Slovakia,sk,48.669026,19.699024,1403,23,558,2020-05-01 12:50:08.609091+00:00
Bolivia,bo,-16.290154,-63.588653,1167,62,132,2020-05-01 12:50:08.742305+00:00
Tunisia,tn,33.886917,9.537499,994,41,305,2020-05-01 12:50:08.992743+00:00
Latvia,lv,56.879635,24.603189,870,16,348,2020-05-01 12:50:09.037751+00:00
Kyrgyzstan,kg,41.20438,74.766098,756,8,504,2020-05-01 12:50:09.486746+00:00
Andorra,ad,42.506285,1.521801,745,42,468,2020-05-01 12:50:09.525493+00:00
Uruguay,uy,-32.522779,-55.765835,643,17,417,2020-05-01 12:50:09.832997+00:00
Montenegro,me,42.708678,19.37439,322,7,219,2020-05-01 12:50:10.728835+00:00
Jersey,je,49.214439,-2.13125,286,23,197,2020-05-01 12:50:10.854398+00:00
Paraguay,py,-23.442503,-58.443832,266,10,113,2020-05-01 12:50:10.969675+00:00
Northern Cyprus,00,35.2480359,33.6577243,108,3,52,2020-05-01 12:50:11.729854+00:00
Liechtenstein,li,47.166,9.555373,82,1,55,2020-05-01 12:50:11.973237+00:00
Grenada,gd,12.1165,-61.679,20,0,13,2020-05-01 12:50:13.069598+00:00
Saint Lucia,lc,13.909444,-60.978893,17,0,15,2020-05-01 12:50:13.277545+00:00
Dominica,dm,15.414999,-61.370976,16,0,13,2020-05-01 12:50:13.351489+00:00
Namibia,na,-22.95764,18.49041,16,0,8,2020-05-01 12:50:13.394265+00:00
Belarus,by,53.709807,27.953389,14917,93,2918,2020-05-01 12:50:06.208619+00:00
Brunei,bn,4.535277,114.727669,138,1,124,2020-05-01 12:50:11.387884+00:00
Zambia,zm,-13.133897,27.849332,106,3,55,2020-05-01 12:50:11.735374+00:00
Barbados,bb,13.193887,-59.543198,81,7,39,2020-05-01 12:50:12.015099+00:00
Macau,mo,22.198745,113.543873,45,0,37,2020-05-01 12:50:12.659316+00:00
Oman,om,21.4735329,55.975413,2447,11,495,2020-05-01 12:50:07.809988+00:00
Ghana,gh,7.946527,-1.023194,2076,17,212,2020-05-01 12:50:08.027668+00:00
Nigeria,ng,9.081999,8.675277,1932,58,319,2020-05-01 12:50:08.121141+00:00
Cameroon,cm,7.369722,12.354722,1832,61,934,2020-05-01 12:50:08.160234+00:00
Cuba,cu,21.521757,-77.781167,1501,61,681,2020-05-01 12:50:08.406417+00:00
Senegal,sn,14.497401,-14.452362,1024,9,359,2020-05-01 12:50:08.945180+00:00
Cyprus,cy,35.126413,33.429859,850,15,296,2020-05-01 12:50:09.075997+00:00
Kosovo,xk,42.6026359,20.902977,806,22,271,2020-05-01 12:50:09.352364+00:00
Honduras,hn,15.199999,-86.241905,804,75,112,2020-05-01 12:50:09.399340+00:00
Sri Lanka,lk,7.873054,80.771797,671,7,157,2020-05-01 12:50:09.731437+00:00
Guatemala,gt,15.783471,-90.230759,599,16,66,2020-05-01 12:50:09.920880+00:00
Georgia,ge,32.1656221,-82.9000751,566,6,184,2020-05-01 12:50:10.007375+00:00
DR Congo,cd,-4.038333,21.758664,572,31,73,2020-05-01 12:50:10.118006+00:00
Malta,mt,35.937496,14.375416,467,4,367,2020-05-01 12:50:10.266506+00:00
Jamaica,jm,18.109581,-77.297508,422,8,29,2020-05-01 12:50:10.469237+00:00
Mauritius,mu,-20.348404,57.552152,332,10,310,2020-05-01 12:50:10.684655+00:00
Isle of Man,im,54.236107,-4.548056,315,21,260,2020-05-01 12:50:10.814562+00:00
Guernsey,gg,49.4481982,-2.58949,251,13,202,2020-05-01 12:50:11.015850+00:00
South Sudan,ss,6.8769919,31.3069788,35,0,0,2020-05-01 12:50:12.900499+00:00
Falkland Islands,fk,-51.796253,-59.523613,13,0,13,2020-05-01 12:50:13.590204+00:00
Åland Islands,ax,60.1785247,19.9156105,12,0,0,2020-05-01 12:50:13.621584+00:00
Burundi,bi,-3.373056,29.918886,11,1,4,2020-05-01 12:50:13.655851+00:00
Greenland,gl,71.706936,-42.604303,11,0,11,2020-05-01 12:50:13.694496+00:00
British Virgin Islands,vg,18.420695,-64.639968,6,1,3,2020-05-01 12:50:14.050635+00:00
Somaliland,05,9.4117434,46.8252838,6,0,1,2020-05-01 12:50:14.080616+00:00
Abkhazia,06,43.0015544,41.023407,3,0,2,2020-05-01 12:50:14.133744+00:00
Anguilla,ai,18.220554,-63.068615,3,0,3,2020-05-01 12:50:14.139634+00:00
Yemen,ye,15.552727,48.516388,6,2,1,2020-05-01 12:50:14.086469+00:00
Sint Eustatius,bq,17.4890306,-62.973555,2,0,1,2020-05-01 12:50:14.175020+00:00
UK,gb,55.378051,-3.435973,171253,26771,0,2020-05-01 12:50:15.579590+00:00
Netherlands,nl,52.132633,5.291266,39791,4893,0,2020-05-01 12:50:15.981476+00:00
Norway,no,60.472024,8.468946,7759,210,32,2020-05-01 12:50:18.195765+00:00
Bosnia and Herzegovina,ba,43.915886,17.679076,1781,70,755,2020-05-01 12:50:19.615601+00:00
Mayotte,yt,-12.8275,45.166244,539,4,235,2020-05-01 12:50:21.066308+00:00
Réunion,re,-21.115141,55.536384,420,0,300,2020-05-01 12:50:21.495175+00:00
Martinique,mq,14.641528,-61.024174,179,14,83,2020-05-01 12:50:22.100107+00:00
Diamond Princess,01,40.8642959,-73.9614914,712,13,651,2020-05-01 12:50:09.725596+00:00
Vatican City,va,41.902916,12.453389,11,0,2,2020-05-01 12:50:13.811107+00:00
Suriname,sr,3.919305,-56.027783,10,1,8,2020-05-01 12:50:13.852002+00:00
Mauritania,mr,21.00789,-10.940835,8,1,6,2020-05-01 12:50:13.904381+00:00
Papua New Guinea,pg,-6.314993,143.95555,8,0,0,2020-05-01 12:50:13.952202+00:00
Artsakh,12,39.796249,46.6550799,7,0,0,2020-05-01 12:50:13.992866+00:00
Bhutan,bt,27.514162,90.433601,7,0,5,2020-05-01 12:50:13.998906+00:00
