location,country_code,latitude,longitude,confirmed,dead,recovered,updated
Aruba,aw,12.52111,-69.968338,5287,49,5076,2020-12-27 09:30:06.844843+00:00
Brazil,br,-14.235004,-51.92528,7465806,190815,6475466,2020-12-27 09:30:06.844843+00:00
Martinique,mq,14.641528,-61.024174,6049,42,98,2020-12-27 09:30:24.621942+00:00
Cambodia,kh,12.565679,104.990963,364,0,356,2020-12-27 09:30:06.844843+00:00
Zimbabwe,zw,-19.015438,29.154857,12963,341,10519,2020-12-27 09:30:06.844843+00:00
Bahamas,bs,25.03428,-77.39627999999999,7788,169,6166,2020-12-27 09:30:06.844843+00:00
Bhutan,bt,27.514162,90.433601,597,0,445,2020-12-27 09:30:06.844843+00:00
Brunei,bn,4.535277,114.727669,152,3,149,2020-12-27 09:30:06.844843+00:00
South Sudan,ss,6.876991899999999,31.3069788,3455,62,3118,2020-12-27 09:30:06.844843+00:00
Vanuatu,vu,-15.376706,166.959158,1,0,1,2020-12-27 09:30:06.844843+00:00
Philippines,ph,12.879721,121.774017,469886,9109,438678,2020-12-27 09:30:06.844843+00:00
India,in,20.593684,78.96288,10188392,147659,9761538,2020-12-27 09:30:06.844843+00:00
Sierra Leone,sl,8.460555,-11.779889,2549,76,1870,2020-12-27 09:30:06.844843+00:00
Marshall Islands,mh,7.131474,171.184478,4,0,4,2020-12-27 09:30:06.844843+00:00
Ethiopia,et,9.145000000000001,40.489673,122413,1901,108269,2020-12-27 09:30:06.844843+00:00
Trinidad and Tobago,tt,10.691803,-61.222503,7104,125,6545,2020-12-27 09:30:06.844843+00:00
Denmark,dk,56.26392,9.501785,151167,1153,108659,2020-12-27 09:30:06.844843+00:00
Samoa,ws,-13.759029,-172.104629,2,0,2,2020-12-27 09:30:06.844843+00:00
China,cn,35.86166,104.195397,86955,4634,81987,2020-12-27 09:30:06.844843+00:00
Tajikistan,tj,38.861034,71.276093,13172,90,12657,2020-12-27 09:30:06.844843+00:00
Russia,ru,61.52401,105.318756,3050248,54778,2450829,2020-12-27 09:30:06.844843+00:00
Germany,de,51.165691,10.451526,1643169,30157,1223700,2020-12-27 09:30:06.844843+00:00
Ecuador,ec,-1.831239,-78.18340599999999,209274,13990,181618,2020-12-27 09:30:06.844843+00:00
Montenegro,me,42.708678,19.37439,46327,658,36373,2020-12-27 09:30:06.844843+00:00
Mayotte,yt,-12.8275,45.166244,5767,54,2964,2020-12-27 09:30:24.621942+00:00
Turkey,tr,38.963745,35.243322,2133373,19624,1994034,2020-12-27 09:30:06.844843+00:00
Nepal,np,28.394857,84.12400799999999,257700,1819,249132,2020-12-27 09:30:06.844843+00:00
Greece,gr,39.074208,21.824312,135114,4553,9989,2020-12-27 09:30:06.844843+00:00
Réunion,re,-21.115141,55.536384,8909,42,8496,2020-12-27 09:30:24.621942+00:00
Gibraltar,gi,36.140751,-5.353585,1593,6,1108,2020-12-27 09:30:06.844843+00:00
Sao Tome and Principe,st,0.18636,6.613080999999999,1014,17,963,2020-12-27 09:30:24.621942+00:00
Cape Verde,cv,16.5388,-23.0418,11698,112,11426,2020-12-27 09:30:06.844843+00:00
Slovakia,sk,48.669026,19.699024,166649,1732,116948,2020-12-27 09:30:06.844843+00:00
Tunisia,tn,33.886917,9.537499,130230,4426,99514,2020-12-27 09:30:06.844843+00:00
Ghana,gh,7.946527,-1.023194,54286,333,53082,2020-12-27 09:30:06.844843+00:00
Monaco,mc,43.73841760000001,7.424615799999999,797,3,673,2020-12-27 09:30:06.844843+00:00
Solomon Islands,sb,-9.64571,160.156194,17,0,5,2020-12-27 09:30:06.844843+00:00
Burkina Faso,bf,12.238333,-1.561593,6255,77,4588,2020-12-27 09:30:06.844843+00:00
Faroe Islands,fo,61.89263500000001,-6.9118061,571,0,530,2020-12-27 09:30:06.844843+00:00
Bermuda,bm,32.3078,-64.7505,581,10,394,2020-12-27 09:30:06.844843+00:00
Cayman Islands,ky,19.3133,-81.2546,318,2,290,2020-12-27 09:30:06.844843+00:00
Canada,ca,56.130366,-106.346771,541616,14800,448222,2020-12-27 09:30:06.844843+00:00
Bangladesh,bd,23.684994,90.356331,508099,7428,450488,2020-12-27 09:30:06.844843+00:00
Sweden,se,60.12816100000001,18.643501,396048,8279,0,2020-12-27 09:30:06.844843+00:00
Austria,at,47.516231,14.550072,350484,5843,320753,2020-12-27 09:30:06.844843+00:00
Hungary,hu,47.162494,19.5033041,316060,9047,130420,2020-12-27 09:30:06.844843+00:00
Moldova,md,47.411631,28.369885,140996,2883,126651,2020-12-27 09:30:06.844843+00:00
Oman,om,21.4735329,55.975413,128290,1491,120441,2020-12-27 09:30:06.844843+00:00
Uzbekistan,uz,41.377491,64.585262,76751,613,74291,2020-12-27 09:30:06.844843+00:00
Niger,ne,17.607789,8.081666,3057,94,1673,2020-12-27 09:30:06.844843+00:00
Northern Cyprus,00,35.2480359,33.6577243,1412,6,1225,2020-12-27 09:30:06.844843+00:00
Artsakh,12,39.796249,46.6550799,1130,30,337,2020-12-27 09:30:06.844843+00:00
Barbados,bb,13.193887,-59.543198,352,7,296,2020-12-27 09:30:06.844843+00:00
Seychelles,sc,-4.679574,55.491977,205,0,184,2020-12-27 09:30:06.844843+00:00
Saint Vincent and The Grenadines,vc,12.984305,-61.287228,109,0,87,2020-12-27 09:30:06.844843+00:00
Gambia,gm,13.443182,-15.310139,3791,123,3659,2020-12-27 09:30:24.621942+00:00
Saint Martin,mf,18.0708298,-63.0500809,961,12,855,2020-12-27 09:30:24.621942+00:00
St. Barth,bl,17.9,-62.833333,184,1,172,2020-12-27 09:30:24.621942+00:00
Spain,es,40.46366700000001,-3.74922,1869610,49824,0,2020-12-27 09:30:06.844843+00:00
Argentina,ar,-38.416097,-63.61667199999999,1578267,42501,1402227,2020-12-27 09:30:06.844843+00:00
Peru,pe,-9.189967,-75.015152,1006318,37414,943637,2020-12-27 09:30:06.844843+00:00
Iraq,iq,33.223191,43.679291,590779,12767,530262,2020-12-27 09:30:06.844843+00:00
Indonesia,id,-0.789275,113.921327,713365,21237,583676,2020-12-27 09:30:06.844843+00:00
Saudi Arabia,sa,23.885942,45.079162,362066,6176,353004,2020-12-27 09:30:06.844843+00:00
Egypt,eg,26.820553,30.802498,131315,7352,109462,2020-12-27 09:30:06.844843+00:00
Dominica,dm,15.414999,-61.37097600000001,96,0,87,2020-12-27 09:30:06.844843+00:00
Tanzania,tz,-6.369028,34.888822,509,21,183,2020-12-27 09:30:06.844843+00:00
French Guiana,gf,3.933889,-53.125782,12779,71,9995,2020-12-27 09:30:24.621942+00:00
Guadeloupe,gp,16.265,-61.55099999999999,8588,154,2242,2020-12-27 09:30:24.621942+00:00
Italy,it,41.87194,12.56738,2038759,71620,1386198,2020-12-27 09:30:06.844843+00:00
Belgium,be,50.503887,4.469936,638030,19158,43814,2020-12-27 09:30:06.844843+00:00
Panama,pa,8.537981,-80.782127,228724,3799,183522,2020-12-27 09:30:06.844843+00:00
United Arab Emirates,ae,23.424076,53.847818,200892,655,177407,2020-12-27 09:30:06.844843+00:00
Belarus,by,53.709807,27.953389,184922,1376,164538,2020-12-27 09:30:06.844843+00:00
French Polynesia,pf,-17.679742,-149.406843,16550,108,5167,2020-12-27 09:30:06.844843+00:00
Belize,bz,17.189877,-88.49765,10490,228,9081,2020-12-27 09:30:06.844843+00:00
Curaçao,cw,12.16957,-68.99002,4140,14,2486,2020-12-27 09:30:06.844843+00:00
Liechtenstein,li,47.166,9.555373,2000,31,1591,2020-12-27 09:30:06.844843+00:00
Sint Maarten,sx,18.04248,-63.05483,1393,26,1238,2020-12-27 09:30:06.844843+00:00
Saint Lucia,lc,13.909444,-60.978893,305,5,267,2020-12-27 09:30:06.844843+00:00
Northern Mariana Islands ,mp,15.0979,145.6739,113,2,32,2020-12-27 09:30:06.844843+00:00
Grenada,gd,12.1165,-61.67899999999999,112,0,57,2020-12-27 09:30:06.844843+00:00
Macau,mo,22.198745,113.543873,46,0,46,2020-12-27 09:30:06.844843+00:00
East Timor,tl,-8.874217,125.727539,41,0,32,2020-12-27 09:30:06.844843+00:00
Greenland,gl,71.706936,-42.604303,26,0,19,2020-12-27 09:30:06.844843+00:00
Poland,pl,51.919438,19.145136,1253957,27061,999610,2020-12-27 09:30:06.844843+00:00
Saint Pierre and Miquelon,pm,46.8852,-56.3159,16,0,14,2020-12-27 09:30:06.844843+00:00
Romania,ro,45.943161,24.96676,613760,15108,536332,2020-12-27 09:30:06.844843+00:00
Israel,il,31.046051,34.851612,399642,3210,360907,2020-12-27 09:30:06.844843+00:00
Suriname,sr,3.919305,-56.027783,5938,119,5456,2020-12-27 09:30:06.844843+00:00
Portugal,pt,39.39987199999999,-8.224454,392996,6556,316671,2020-12-27 09:30:06.844843+00:00
Togo,tg,8.6195,0.8248,3555,68,3261,2020-12-27 09:30:06.844843+00:00
USS Theodore Roosevelt,09,0.0,0.0,1102,1,751,2020-12-27 09:30:06.844843+00:00
Turks and Caicos Islands,tc,21.694025,-71.797928,844,6,761,2020-12-27 09:30:06.844843+00:00
Montserrat,ms,16.742498,-62.187366,13,1,12,2020-12-27 09:30:06.844843+00:00
MS Zaandam,03,0.0,0.0,13,4,7,2020-12-27 09:30:06.844843+00:00
Dominican Republic,do,18.735693,-70.162651,165940,2404,127866,2020-12-27 09:30:06.844843+00:00
Kazakhstan,kz,48.019573,66.923684,151727,2196,139022,2020-12-27 09:30:06.844843+00:00
Diamond Princess,01,40.86429589999999,-73.9614914,712,14,699,2020-12-27 09:30:06.844843+00:00
Kuwait,kw,29.31166,47.481766,149449,929,145380,2020-12-27 09:30:06.844843+00:00
Papua New Guinea,pg,-6.314992999999999,143.95555,780,9,661,2020-12-27 09:30:06.844843+00:00
Antigua and Barbuda,ag,17.060816,-61.796428,155,5,146,2020-12-27 09:30:06.844843+00:00
British Virgin Islands,vg,18.420695,-64.639968,86,1,74,2020-12-27 09:30:06.844843+00:00
Laos,la,19.85627,102.495496,41,0,37,2020-12-27 09:30:06.844843+00:00
New Caledonia,nc,-20.904305,165.618042,38,0,37,2020-12-27 09:30:06.844843+00:00
Saint Kitts and Nevis,kn,17.357822,-62.782998,30,0,26,2020-12-27 09:30:06.844843+00:00
Guatemala,gt,15.783471,-90.23075899999999,135171,4763,123893,2020-12-27 09:30:06.844843+00:00
Nigeria,ng,9.081999,8.675277,83576,1247,70495,2020-12-27 09:30:06.844843+00:00
Sri Lanka,lk,7.873053999999999,80.77179699999999,40380,187,32051,2020-12-27 09:30:06.844843+00:00
Estonia,ee,58.595272,25.0136071,25392,204,15822,2020-12-27 09:30:06.844843+00:00
United States,us,37.09024,-95.712891,19433847,339921,11410501,2020-12-27 09:30:06.844843+00:00
Mauritania,mr,21.00789,-10.940835,13516,321,10065,2020-12-27 09:30:06.844843+00:00
Iran,ir,32.427908,53.688046,1194963,54574,942548,2020-12-27 09:30:06.844843+00:00
Ukraine,ua,48.379433,31.1655799,1025989,17774,658538,2020-12-27 09:30:06.844843+00:00
Anguilla,ai,18.220554,-63.06861499999999,12,0,10,2020-12-27 09:30:06.844843+00:00
South Africa,za,-30.559482,22.937506,994911,26521,839194,2020-12-27 09:30:06.844843+00:00
Netherlands,nl,52.132633,5.291265999999999,753905,10970,0,2020-12-27 09:30:06.844843+00:00
Chile,cl,-35.675147,-71.542969,598394,16404,567376,2020-12-27 09:30:06.844843+00:00
Pakistan,pk,30.375321,69.34511599999999,471335,9874,422132,2020-12-27 09:30:06.844843+00:00
Armenia,am,40.069099,45.038189,157834,2768,139113,2020-12-27 09:30:06.844843+00:00
Bolivia,bo,-16.290154,-63.58865299999999,154349,9093,129969,2020-12-27 09:30:06.844843+00:00
Qatar,qa,25.354826,51.183884,142903,244,140687,2020-12-27 09:30:06.844843+00:00
Bahrain,bh,26.0667,50.5577,91518,351,89326,2020-12-27 09:30:06.844843+00:00
Singapore,sg,1.352083,103.819836,58524,29,58362,2020-12-27 09:30:06.844843+00:00
France,fr,46.227638,2.213749,2550864,62573,189718,2020-12-27 09:30:06.844843+00:00
United Kingdom,gb,55.378051,-3.435973,2256005,70405,0,2020-12-27 09:30:06.844843+00:00
Colombia,co,4.570868,-74.297333,1584903,41943,1444041,2020-12-27 09:30:06.844843+00:00
Mexico,mx,23.634501,-102.552784,1377217,122026,1031864,2020-12-27 09:30:06.844843+00:00
Afghanistan,af,33.93911,67.709953,52007,2170,41331,2020-12-27 09:30:06.844843+00:00
Abkhazia,06,43.0015544,41.023407,7504,100,5545,2020-12-27 09:30:06.844843+00:00
Fiji,fj,-17.713371,178.065032,46,2,44,2020-12-27 09:30:06.844843+00:00
Vatican City,va,41.902916,12.453389,29,0,27,2020-12-27 09:30:06.844843+00:00
Sint Eustatius,bq,17.4890306,-62.973555,18,0,18,2020-12-27 09:30:06.844843+00:00
Falkland Islands,fk,-51.796253,-59.523613,29,0,17,2020-12-27 09:30:06.844843+00:00
Coral Princess,11,26.648165,-82.03541899999999,12,3,0,2020-12-27 09:30:06.844843+00:00
Albania,al,41.153332,20.168331,55755,1143,31181,2020-12-27 09:30:06.844843+00:00
Gabon,ga,-0.803689,11.609444,9497,64,9331,2020-12-27 09:30:06.844843+00:00
Azerbaijan,az,40.143105,47.576927,213192,2454,164500,2020-12-27 09:30:06.844843+00:00
Malaysia,my,4.210484,101.975766,103900,451,83414,2020-12-27 09:30:06.844843+00:00
Sudan,sd,12.862807,30.217636,23316,1468,13524,2020-12-27 09:30:06.844843+00:00
Djibouti,dj,11.825138,42.590275,5805,61,5699,2020-12-27 09:30:06.844843+00:00
Algeria,dz,28.033886,1.659626,97857,2722,65505,2020-12-27 09:30:06.844843+00:00
Croatia,hr,45.1,15.2000001,204312,3613,189055,2020-12-27 09:30:06.844843+00:00
Kosovo,xk,42.6026359,20.902977,50405,1305,39134,2020-12-27 09:30:06.844843+00:00
Ivory Coast,ci,7.539988999999999,-5.547079999999999,22081,133,21697,2020-12-27 09:30:06.844843+00:00
Kenya,ke,-0.023559,37.906193,95843,1655,76998,2020-12-27 09:30:06.844843+00:00
Norway,no,60.47202399999999,8.468945999999999,46678,421,37658,2020-12-27 09:30:06.844843+00:00
Senegal,sn,14.497401,-14.452362,18523,387,16881,2020-12-27 09:30:06.844843+00:00
Central African Republic,cf,6.611110999999999,20.939444,4948,63,1924,2020-12-27 09:30:06.844843+00:00
Czech Republic,cz,49.81749199999999,15.472962,670599,11044,565841,2020-12-27 09:30:06.844843+00:00
Bulgaria,bg,42.733883,25.48583,197384,7123,109742,2020-12-27 09:30:06.844843+00:00
Costa Rica,cr,9.748916999999999,-83.753428,162990,2086,128842,2020-12-27 09:30:06.844843+00:00
Palestine,ps,31.952162,35.233154,131904,1281,108118,2020-12-27 09:30:06.844843+00:00
Ireland,ie,53.1423672,-7.692053599999999,85394,2200,24000,2020-12-27 09:30:06.844843+00:00
Madagascar,mg,-18.766947,46.869107,17633,260,17147,2020-12-27 09:30:06.844843+00:00
Morocco,ma,31.791702,-7.092619999999999,430562,7204,396095,2020-12-27 09:30:06.844843+00:00
Switzerland,ch,46.818188,8.227511999999999,428197,7193,317600,2020-12-27 09:30:06.844843+00:00
North Macedonia,mk,41.608635,21.745275,81425,2427,58720,2020-12-27 09:30:06.844843+00:00
Luxembourg,lu,49.815273,6.129582999999999,45776,470,37574,2020-12-27 09:30:06.844843+00:00
DR Congo,cd,-4.038333,21.758664,16763,573,13982,2020-12-27 09:30:06.844843+00:00
Venezuela,ve,6.42375,-66.58973,111951,1013,106105,2020-12-27 09:30:06.844843+00:00
Finland,fi,61.92410999999999,25.7481511,34821,524,26000,2020-12-27 09:30:06.844843+00:00
Guinea,gn,9.945587,-9.696645,13646,80,13049,2020-12-27 09:30:06.844843+00:00
Kyrgyzstan,kg,41.20438,74.766098,80182,1344,74477,2020-12-27 09:30:06.844843+00:00
Serbia,rs,44.016521,21.005859,323367,2983,31536,2020-12-27 09:30:06.844843+00:00
Australia,au,-25.274398,133.775136,28312,908,25730,2020-12-27 09:30:06.844843+00:00
Cameroon,cm,7.369721999999999,12.354722,26277,448,24892,2020-12-27 09:30:06.844843+00:00
Bosnia and Herzegovina,ba,43.915886,17.679076,109330,3923,75124,2020-12-27 09:30:06.844843+00:00
Haiti,ht,18.971187,-72.285215,9805,234,8413,2020-12-27 09:30:06.844843+00:00
Japan,jp,36.204824,138.252924,213547,3155,180188,2020-12-27 09:30:06.844843+00:00
South Korea,kr,35.907757,127.766922,56872,808,39040,2020-12-27 09:30:06.844843+00:00
New Zealand,nz,-40.900557,174.885971,2144,25,2069,2020-12-27 09:30:06.844843+00:00
Malta,mt,35.937496,14.375416,12241,206,10550,2020-12-27 09:30:06.844843+00:00
Slovenia,si,46.151241,14.995463,114184,2532,92986,2020-12-27 09:30:06.844843+00:00
Cyprus,cy,35.126413,33.429859,19391,111,2057,2020-12-27 09:30:06.844843+00:00
Congo,cg,-4.038333,21.758664,6908,107,5831,2020-12-27 09:30:06.844843+00:00
Equatorial Guinea,gq,1.650801,10.267895,5236,85,5078,2020-12-27 09:30:06.844843+00:00
Cuba,cu,21.521757,-77.781167,11038,141,9599,2020-12-27 09:30:06.844843+00:00
Mali,ml,17.570692,-3.996166,6574,249,4204,2020-12-27 09:30:06.844843+00:00
Chad,td,15.454166,18.732207,1986,103,1654,2020-12-27 09:30:06.844843+00:00
Zambia,zm,-13.133897,27.849332,19671,382,18200,2020-12-27 09:30:06.844843+00:00
Somalia,so,5.152149,46.199616,4690,127,3605,2020-12-27 09:30:06.844843+00:00
Paraguay,py,-23.442503,-58.443832,104162,2174,77359,2020-12-27 09:30:06.844843+00:00
Benin,bj,9.30769,2.315834,3205,44,3061,2020-12-27 09:30:06.844843+00:00
Liberia,lr,6.428055,-9.429499000000002,1779,83,1406,2020-12-27 09:30:06.844843+00:00
Jordan,jo,30.585164,36.238414,286356,3729,258651,2020-12-27 09:30:06.844843+00:00
Hong Kong,hk,22.3193039,114.1693611,8541,136,7394,2020-12-27 09:30:06.844843+00:00
Malawi,mw,-13.254308,34.301525,6343,188,5680,2020-12-27 09:30:06.844843+00:00
Georgia,ge,42.3154,43.3569,221605,2377,203547,2020-12-27 09:30:06.844843+00:00
Angola,ao,-11.202692,17.873887,17149,399,9976,2020-12-27 09:30:06.844843+00:00
Lebanon,lb,33.854721,35.862285,169472,1379,120780,2020-12-27 09:30:06.844843+00:00
Libya,ly,26.3351,17.228331,97653,1415,68289,2020-12-27 09:30:06.844843+00:00
Thailand,th,15.870032,100.992541,6141,60,4161,2020-12-27 09:30:06.844843+00:00
Latvia,lv,56.879635,24.603189,35819,515,24722,2020-12-27 09:30:06.844843+00:00
Uruguay,uy,-32.522779,-55.765835,16218,147,10847,2020-12-27 09:30:06.844843+00:00
Eswatini,sz,-26.522503,31.465866,8367,163,7016,2020-12-27 09:30:06.844843+00:00
Guinea-Bissau,gw,11.803749,-15.180413,2447,45,2386,2020-12-27 09:30:06.844843+00:00
Maldives,mv,3.202778,73.22068,13618,48,13050,2020-12-27 09:30:06.844843+00:00
Nicaragua,ni,12.865416,-85.207229,5991,164,4225,2020-12-27 09:30:06.844843+00:00
Yemen,ye,15.552727,48.516388,2436,660,1580,2020-12-27 09:30:06.844843+00:00
Uganda,ug,1.373333,32.290275,33563,245,11055,2020-12-27 09:30:06.844843+00:00
Andorra,ad,42.506285,1.521801,7806,83,7252,2020-12-27 09:30:06.844843+00:00
Jamaica,jm,18.109581,-77.297508,12684,294,9881,2020-12-27 09:30:06.844843+00:00
Lithuania,lt,55.169438,23.881275,130598,1254,61751,2020-12-27 09:30:06.844843+00:00
Namibia,na,-22.95764,18.49041,21398,187,17851,2020-12-27 09:30:06.844843+00:00
Rwanda,rw,-1.940278,29.873888,7817,72,6227,2020-12-27 09:30:06.844843+00:00
Iceland,is,64.963051,-19.020835,5683,28,5506,2020-12-27 09:30:06.844843+00:00
San Marino,sm,43.94236,12.457777,2231,56,1863,2020-12-27 09:30:06.844843+00:00
Taiwan,tw,23.69781,120.960515,785,7,653,2020-12-27 09:30:06.844843+00:00
Burundi,bi,-3.373056,29.918886,786,2,687,2020-12-27 09:30:06.844843+00:00
Comoros,km,-11.6455,43.3333,715,7,626,2020-12-27 09:30:06.844843+00:00
Mauritius,mu,-20.348404,57.55215200000001,527,10,496,2020-12-27 09:30:06.844843+00:00
Myanmar,mm,21.916221,95.955974,121280,2579,102163,2020-12-27 09:30:06.844843+00:00
Honduras,hn,15.199999,-86.241905,119097,3065,55704,2020-12-27 09:30:06.844843+00:00
Puerto Rico,pr,18.220833,-66.590149,67426,1432,0,2020-12-27 09:30:06.844843+00:00
El Salvador,sv,13.794185,-88.89653,44619,1305,39989,2020-12-27 09:30:06.844843+00:00
Mozambique,mz,-18.665695,35.529562,18162,159,16109,2020-12-27 09:30:06.844843+00:00
Botswana,bw,-22.328474,24.684866,14025,40,11627,2020-12-27 09:30:06.844843+00:00
Isle of Man,im,54.236107,-4.548056,374,25,346,2020-12-27 09:30:06.844843+00:00
Guernsey,gg,49.4481982,-2.58949,297,13,278,2020-12-27 09:30:06.844843+00:00
Syria,sy,34.80207499999999,38.996815,10932,669,5093,2020-12-27 09:30:06.844843+00:00
Guam,gu,13.444304,144.793731,7257,121,6707,2020-12-27 09:30:06.844843+00:00
Guyana,gy,4.860416,-58.93018,6289,162,5652,2020-12-27 09:30:06.844843+00:00
Lesotho,ls,-29.609988,28.233608,2725,51,1466,2020-12-27 09:30:06.844843+00:00
Jersey,je,49.214439,-2.13125,2583,41,1621,2020-12-27 09:30:06.844843+00:00
U.S. Virgin Islands,vi,18.335765,-64.896335,1979,23,1824,2020-12-27 09:30:06.844843+00:00
Vietnam,vn,14.058324,108.277199,1440,35,1303,2020-12-27 09:30:06.844843+00:00
Somaliland,05,9.411743399999999,46.8252838,1354,47,1200,2020-12-27 09:30:06.844843+00:00
Mongolia,mn,46.862496,103.846656,1121,0,711,2020-12-27 09:30:06.844843+00:00
Eritrea,er,15.179384,39.782334,992,1,600,2020-12-27 09:30:06.844843+00:00
