location,country_code,latitude,longitude,confirmed,dead,recovered,updated
Australia,au,-25.274398,133.775136,7255,102,6690,2020-06-06 12:00:14.227024+00:00
Belarus,by,53.709807,27.953389,46868,259,22066,2020-06-06 12:00:07.348874+00:00
Israel,il,31.046051,34.851612,17706,292,15042,2020-06-06 12:00:13.030657+00:00
Poland,pl,51.919438,19.145136,25669,1143,12641,2020-06-06 12:00:12.601097+00:00
Germany,de,51.165691,10.451526,185414,8763,168900,2020-06-06 12:00:06.555787+00:00
Switzerland,ch,46.818188,8.227511999999999,30956,1921,28600,2020-06-06 12:00:12.380150+00:00
Ireland,ie,53.1423672,-7.692053599999999,25163,1670,22698,2020-06-06 12:00:12.654625+00:00
Austria,at,47.516231,14.550072,16898,672,15789,2020-06-06 12:00:13.154921+00:00
Panama,pa,8.537981,-80.782127,15463,370,9719,2020-06-06 12:00:13.210534+00:00
Brazil,br,-14.235004,-51.92528,646006,35047,302084,2020-06-06 12:00:06.184228+00:00
Japan,jp,36.204824,138.252924,17064,907,14972,2020-06-06 12:00:13.100322+00:00
South Africa,za,-30.559482,22.937506,43434,103,23088,2020-06-06 12:03:21.577709+00:00
Italy,it,41.87194,12.56738,234531,33774,163781,2020-06-06 12:00:06.441947+00:00
India,in,20.593684,78.96288,237754,6650,114073,2020-06-06 12:00:06.397023+00:00
Ecuador,ec,-1.831239,-78.18340599999999,41575,3534,20568,2020-06-06 12:00:08.917045+00:00
Peru,pe,-9.189967,-75.015152,187400,5162,79214,2020-06-06 12:00:06.489133+00:00
Denmark,dk,56.26392,9.501785,11875,586,10653,2020-06-06 12:00:13.550213+00:00
Sweden,se,60.12816100000001,18.643501,42939,4639,4971,2020-06-06 12:00:08.873887+00:00
Singapore,sg,1.352083,103.819836,37527,24,24209,2020-06-06 12:00:12.145378+00:00
United Arab Emirates,ae,23.424076,53.847818,37642,274,20337,2020-06-06 12:00:12.090118+00:00
Malaysia,my,4.210484,101.975766,8304,117,6635,2020-06-06 12:00:14.087962+00:00
Czech Republic,cz,49.81749199999999,15.472962,9530,327,6881,2020-06-06 12:00:13.893041+00:00
Serbia,rs,44.016521,21.005859,11667,247,6931,2020-06-06 12:00:13.740927+00:00
Mexico,mx,23.634501,-102.552784,110026,13170,78590,2020-06-06 12:00:06.898766+00:00
Canada,ca,56.130366,-106.346771,94335,7703,52568,2020-06-06 12:00:06.996138+00:00
China,cn,35.86166,104.195397,83030,4634,78329,2020-06-06 12:00:07.086726+00:00
Philippines,ph,12.879721,121.774017,21340,994,4441,2020-06-06 12:00:12.716346+00:00
Norway,no,60.47202399999999,8.468945999999999,8522,238,8138,2020-06-06 12:00:14.044194+00:00
Chile,cl,-35.675147,-71.542969,122499,1448,95631,2020-06-06 12:00:06.841176+00:00
Bangladesh,bd,23.684994,90.356331,63026,846,13325,2020-06-06 12:00:07.190225+00:00
Iran,ir,32.427908,53.688046,169425,8209,132038,2020-06-06 12:00:06.663576+00:00
Egypt,eg,26.820553,30.802498,31115,1166,9216,2020-06-06 12:00:12.326534+00:00
Romania,ro,45.943161,24.96676,20290,1318,14419,2020-06-06 12:00:12.849989+00:00
South Korea,kr,35.907757,127.766922,11719,273,10531,2020-06-06 12:00:13.673411+00:00
Turkey,tr,38.963745,35.243322,168340,4648,133400,2020-06-06 12:00:06.602760+00:00
Portugal,pt,39.39987199999999,-8.224454,33969,1465,20526,2020-06-06 12:00:12.272706+00:00
Belgium,be,50.503887,4.469936,59072,9580,16190,2020-06-06 12:00:07.247185+00:00
Indonesia,id,-0.789275,113.921327,30514,1801,9907,2020-06-06 12:00:12.494698+00:00
Saudi Arabia,sa,23.885942,45.079162,95748,642,70616,2020-06-06 12:00:06.947301+00:00
Pakistan,pk,30.375321,69.34511599999999,93983,1935,32581,2020-06-06 12:00:07.039373+00:00
Russia,ru,61.52401,105.318756,458689,5725,221388,2020-06-06 12:00:06.247753+00:00
Spain,es,40.46366700000001,-3.74922,288058,27134,150376,2020-06-06 12:00:06.348789+00:00
Armenia,am,40.069099,45.038189,12364,190,3720,2020-06-06 12:00:13.498883+00:00
Djibouti,dj,11.825138,42.590275,4123,26,1707,2020-06-06 12:00:14.644002+00:00
DR Congo,cd,-4.038333,21.758664,3878,82,537,2020-06-06 12:00:14.846884+00:00
Cuba,cu,21.521757,-77.781167,2133,83,1848,2020-06-06 12:00:15.530593+00:00
Estonia,ee,58.595272,25.0136071,1931,69,1675,2020-06-06 12:00:15.634005+00:00
Lithuania,lt,55.169438,23.881275,1705,71,13021,2020-06-06 12:00:15.853142+00:00
Kosovo,xk,42.6026359,20.902977,1142,30,871,2020-06-06 12:00:16.455332+00:00
Albania,al,41.153332,20.168331,1232,33,925,2020-06-06 12:00:16.365547+00:00
Morocco,ma,31.791702,-7.092619999999999,8132,208,7278,2020-06-06 12:00:14.136298+00:00
Sudan,sd,12.862807,30.217636,5865,347,1924,2020-06-06 12:00:14.461345+00:00
Uzbekistan,uz,41.377491,64.585262,4022,16,3247,2020-06-06 12:00:14.766479+00:00
Tunisia,tn,33.886917,9.537499,1087,49,977,2020-06-06 12:00:16.626883+00:00
Cyprus,cy,35.126413,33.429859,960,17,807,2020-06-06 12:00:16.846048+00:00
Argentina,ar,-38.416097,-63.61667199999999,21037,632,6088,2020-06-06 12:00:12.785436+00:00
Algeria,dz,28.033886,1.659626,9935,690,6453,2020-06-06 12:00:13.802543+00:00
Thailand,th,15.870032,100.992541,3104,58,2971,2020-06-06 12:00:14.928127+00:00
Croatia,hr,45.1,15.2000001,2247,104,2121,2020-06-06 12:00:15.358315+00:00
Moldova,md,47.411631,28.369885,9247,326,5450,2020-06-06 12:00:13.947144+00:00
Finland,fi,61.92410999999999,25.7481511,6964,322,5800,2020-06-06 12:00:14.271789+00:00
Oman,om,21.4735329,55.975413,16016,72,3451,2020-06-06 12:00:13.265664+00:00
Nigeria,ng,9.081999,8.675277,11844,333,3696,2020-06-06 12:00:13.617007+00:00
Azerbaijan,az,40.143105,47.576927,6860,82,3871,2020-06-06 12:00:14.315029+00:00
Hungary,hu,47.162494,19.5033041,3990,545,2279,2020-06-06 12:00:14.807330+00:00
North Macedonia,mk,41.608635,21.745275,2790,149,1632,2020-06-06 12:00:15.217685+00:00
Ivory Coast,ci,7.539988999999999,-5.547079999999999,3431,36,1604,2020-06-06 12:00:14.889039+00:00
Iceland,is,64.963051,-19.020835,1806,10,1794,2020-06-06 12:00:15.721794+00:00
Bahrain,bh,26.0667,50.5577,14224,23,9020,2020-06-06 12:00:13.321885+00:00
Somalia,so,5.152149,46.199616,2204,79,418,2020-06-06 12:00:15.433303+00:00
Slovenia,si,46.151241,14.995463,1484,109,1359,2020-06-06 12:00:16.005271+00:00
Kyrgyzstan,kg,41.20438,74.766098,1974,22,1360,2020-06-06 12:00:15.581644+00:00
Hong Kong,hk,22.3193039,114.1693611,1106,4,1048,2020-06-06 12:00:16.536337+00:00
Latvia,lv,56.879635,24.603189,1086,25,781,2020-06-06 12:00:16.719646+00:00
Iraq,iq,33.223191,43.679291,9846,285,4573,2020-06-06 12:00:13.851714+00:00
Ghana,gh,7.946527,-1.023194,9168,42,3457,2020-06-06 12:00:13.994181+00:00
Cameroon,cm,7.369721999999999,12.354722,7599,212,4587,2020-06-06 12:00:14.183127+00:00
Greece,gr,39.074208,21.824312,2967,180,1374,2020-06-06 12:00:15.014421+00:00
Senegal,sn,14.497401,-14.452362,4249,51,2512,2020-06-06 12:00:14.599036+00:00
Bulgaria,bg,42.733883,25.48583,2668,160,1528,2020-06-06 12:00:15.262878+00:00
New Zealand,nz,-40.900557,174.885971,1504,22,1481,2020-06-06 12:00:16.408013+00:00
Guinea,gn,9.945587,-9.696645,4060,23,2667,2020-06-06 12:00:14.682941+00:00
Afghanistan,af,33.93911,67.709953,19551,320,1820,2020-06-06 12:00:12.907539+00:00
Gibraltar,gi,36.140751,-5.353585,175,0,155,2020-06-06 12:00:18.555923+00:00
Isle of Man,im,54.236107,-4.548056,336,24,312,2020-06-06 12:00:17.974470+00:00
Mauritius,mu,-20.348404,57.55215200000001,337,10,324,2020-06-06 12:00:17.934549+00:00
Jersey,je,49.214439,-2.13125,309,30,290,2020-06-06 12:00:18.135974+00:00
Lebanon,lb,33.854721,35.862285,1312,28,768,2020-06-06 12:00:16.277112+00:00
Cape Verde,cv,16.5388,-23.0418,536,5,239,2020-06-06 12:00:17.508042+00:00
Guernsey,gg,49.4481982,-2.58949,252,13,238,2020-06-06 12:00:18.307655+00:00
Malta,mt,35.937496,14.375416,627,9,596,2020-06-06 12:00:17.365832+00:00
Myanmar,mm,21.916221,95.955974,236,6,151,2020-06-06 12:00:18.386028+00:00
Guam,gu,13.444304,144.793731,179,5,143,2020-06-06 12:00:18.510305+00:00
Brunei,bn,4.535277,114.727669,141,2,138,2020-06-06 12:00:18.704957+00:00
Tajikistan,tj,38.861034,71.276093,4370,48,2491,2020-06-06 12:00:14.542884+00:00
El Salvador,sv,13.794185,-88.89653,2934,53,1281,2020-06-06 12:00:15.163593+00:00
Venezuela,ve,6.42375,-66.58973,2145,20,334,2020-06-06 12:00:15.477562+00:00
Kenya,ke,-0.023559,37.906193,2474,79,643,2020-06-06 12:00:15.316286+00:00
Costa Rica,cr,9.748916999999999,-83.753428,1228,10,695,2020-06-06 12:00:16.317813+00:00
Ethiopia,et,9.145000000000001,40.489673,1934,20,281,2020-06-06 12:00:15.761792+00:00
Madagascar,mg,-18.766947,46.869107,1026,8,212,2020-06-06 12:00:16.757516+00:00
Georgia,ge,32.1656221,-82.9000751,808,13,663,2020-06-06 12:00:17.147876+00:00
Chad,td,15.454166,18.732207,836,668,657,2020-06-06 12:00:17.059688+00:00
San Marino,sm,43.94236,12.457777,680,42,428,2020-06-06 12:00:17.241985+00:00
Jordan,jo,30.585164,36.238414,784,9,571,2020-06-06 12:00:17.195663+00:00
Niger,ne,17.607789,8.081666,966,65,863,2020-06-06 12:00:16.795646+00:00
Congo,cg,-4.038333,21.758664,635,20,182,2020-06-06 12:00:17.294295+00:00
Jamaica,jm,18.109581,-77.297508,595,10,385,2020-06-06 12:00:17.407215+00:00
Palestine,ps,31.952162,35.233154,464,3,400,2020-06-06 12:00:17.698355+00:00
Rwanda,rw,-1.940278,29.873888,420,2,282,2020-06-06 12:00:17.786827+00:00
Liberia,lr,6.428055,-9.429499000000002,334,30,176,2020-06-06 12:00:18.005046+00:00
Vietnam,vn,14.058324,108.277199,329,0,307,2020-06-06 12:00:18.051670+00:00
Montenegro,me,42.708678,19.37439,324,9,315,2020-06-06 12:00:18.092155+00:00
Guatemala,gt,15.783471,-90.23075899999999,6485,216,1053,2020-06-06 12:00:14.361151+00:00
Maldives,mv,3.202778,73.22068,1883,8,717,2020-06-06 12:00:15.670335+00:00
Guinea-Bissau,gw,11.803749,-15.180413,1368,12,153,2020-06-06 12:00:16.128581+00:00
Zambia,zm,-13.133897,27.849332,1089,7,912,2020-06-06 12:00:16.587646+00:00
Paraguay,py,-23.442503,-58.443832,1087,11,516,2020-06-06 12:00:16.670641+00:00
Sierra Leone,sl,8.460555,-11.779889,929,47,580,2020-06-06 12:00:16.888667+00:00
Uruguay,uy,-32.522779,-55.765835,834,23,721,2020-06-06 12:00:17.102918+00:00
Faroe Islands,fo,61.89263500000001,-6.9118061,187,0,187,2020-06-06 12:00:18.474219+00:00
Gabon,ga,-0.803689,11.609444,3101,21,833,2020-06-06 12:00:14.968882+00:00
Mali,ml,17.570692,-3.996166,1485,857,816,2020-06-06 12:00:15.945322+00:00
Burkina Faso,bf,12.238333,-1.561593,888,53,760,2020-06-06 12:00:16.929479+00:00
Andorra,ad,42.506285,1.521801,852,51,741,2020-06-06 12:00:17.014438+00:00
Tanzania,tz,-6.369028,34.888822,509,21,183,2020-06-06 12:00:17.549950+00:00
Eritrea,er,15.179384,39.782334,39,0,39,2020-06-06 12:00:19.578114+00:00
Cayman Islands,ky,19.3133,-81.2546,164,1,93,2020-06-06 12:00:18.588523+00:00
U.S. Virgin Islands,vi,18.335765,-64.896335,71,6,62,2020-06-06 12:00:19.319539+00:00
Botswana,bw,-22.328474,24.684866,40,1,23,2020-06-06 12:00:19.535704+00:00
Saint Lucia,lc,13.909444,-60.978893,19,0,18,2020-06-06 12:00:20.076564+00:00
Northern Mariana Islands ,mp,15.0979,145.6739,26,2,16,2020-06-06 12:00:19.659104+00:00
Dominica,dm,15.414999,-61.37097600000001,18,0,16,2020-06-06 12:00:20.157158+00:00
Central African Republic,cf,6.611110999999999,20.939444,1451,4,29,2020-06-06 12:00:16.051298+00:00
South Sudan,ss,6.876991899999999,31.3069788,1317,14,6,2020-06-06 12:00:16.169996+00:00
Guyana,gy,4.860416,-58.93018,153,12,77,2020-06-06 12:00:18.628595+00:00
Haiti,ht,18.971187,-72.285215,2924,50,24,2020-06-06 12:00:15.056158+00:00
Nicaragua,ni,12.865416,-85.207229,1118,46,370,2020-06-06 12:00:16.499837+00:00
Malawi,mw,-13.254308,34.301525,409,4,55,2020-06-06 12:00:17.842672+00:00
Eswatini,sz,-26.522503,31.465866,305,3,221,2020-06-06 12:00:18.167158+00:00
Cambodia,kh,12.565679,104.990963,125,0,123,2020-06-06 12:00:18.794974+00:00
Syria,sy,34.80207499999999,38.996815,124,6,53,2020-06-06 12:00:18.849304+00:00
Bahamas,bs,25.03428,-77.39627999999999,102,11,55,2020-06-06 12:00:18.895658+00:00
Monaco,mc,43.73841760000001,7.424615799999999,99,4,93,2020-06-06 12:00:18.965776+00:00
Sint Maarten,sx,18.04248,-63.05483,77,15,61,2020-06-06 12:00:19.184838+00:00
Burundi,bi,-3.373056,29.918886,63,1,33,2020-06-06 12:00:19.348114+00:00
Nepal,np,28.394857,84.12400799999999,3235,13,365,2020-06-06 12:00:15.113821+00:00
Uganda,ug,1.373333,32.290275,557,0,82,2020-06-06 12:00:17.449189+00:00
Yemen,ye,15.552727,48.516388,469,111,23,2020-06-06 12:00:17.593213+00:00
Mongolia,mn,46.862496,103.846656,193,0,71,2020-06-06 12:00:18.431545+00:00
Macau,mo,22.198745,113.543873,45,0,45,2020-06-06 12:00:19.499087+00:00
Zimbabwe,zw,-19.015438,29.154857,265,4,33,2020-06-06 12:00:18.211930+00:00
Benin,bj,9.30769,2.315834,261,3,151,2020-06-06 12:00:18.261257+00:00
Namibia,na,-22.95764,18.49041,29,0,16,2020-06-06 12:00:19.620061+00:00
East Timor,tl,-8.874217,125.727539,24,0,24,2020-06-06 12:00:19.692334+00:00
Grenada,gd,12.1165,-61.67899999999999,23,0,22,2020-06-06 12:00:19.733136+00:00
Mozambique,mz,-18.665695,35.529562,354,2,119,2020-06-06 12:00:17.894254+00:00
Libya,ly,26.3351,17.228331,239,5,52,2020-06-06 12:00:18.341886+00:00
Bermuda,bm,32.3078,-64.7505,141,9,114,2020-06-06 12:00:18.672890+00:00
Northern Cyprus,00,35.2480359,33.6577243,108,4,104,2020-06-06 12:00:18.890244+00:00
Aruba,aw,12.52111,-69.968338,101,3,98,2020-06-06 12:00:18.933608+00:00
Liechtenstein,li,47.166,9.555373,82,1,55,2020-06-06 12:00:19.143393+00:00
French Polynesia,pf,-17.679742,-149.406843,60,0,60,2020-06-06 12:00:19.387193+00:00
Curaçao,cw,12.16957,-68.99002,21,1,16,2020-06-06 12:00:19.789561+00:00
Belize,bz,17.189877,-88.49765,19,2,16,2020-06-06 12:00:19.952914+00:00
Laos,la,19.85627,102.495496,19,0,18,2020-06-06 12:00:20.021217+00:00
New Caledonia,nc,-20.904305,165.618042,20,0,18,2020-06-06 12:00:19.922247+00:00
Papua New Guinea,pg,-6.314992999999999,143.95555,8,0,8,2020-06-06 12:00:20.426240+00:00
Guadeloupe,gp,16.265,-61.55099999999999,164,14,144,2020-06-06 12:00:31.904544+00:00
Mauritania,mr,21.00789,-10.940835,883,43,69,2020-06-06 12:00:16.975608+00:00
Greenland,gl,71.706936,-42.604303,13,0,13,2020-06-06 12:00:20.231227+00:00
Mayotte,yt,-12.8275,45.166244,2079,25,1523,2020-06-06 12:00:28.607192+00:00
Trinidad and Tobago,tt,10.691803,-61.222503,117,8,108,2020-06-06 12:00:32.429060+00:00
Saint Kitts and Nevis,kn,17.357822,-62.782998,15,0,15,2020-06-06 12:00:33.891974+00:00
Turks and Caicos,tc,21.694025,-71.797928,12,1,11,2020-06-06 12:00:34.014045+00:00
St. Barth,bl,17.9,-62.833333,6,0,6,2020-06-06 12:00:34.267819+00:00
United States,us,37.09024,-95.712891,1966266,111398,738729,2020-06-06 12:00:06.112954+00:00
Saint Martin,mf,18.0708298,-63.0500809,41,3,33,2020-06-06 12:00:33.171199+00:00
Saint Pierre Miquelon,pm,46.8852,-56.3159,1,0,1,2020-06-06 12:00:34.376437+00:00
Kuwait,kw,29.31166,47.481766,31131,254,19282,2020-06-06 12:00:12.432585+00:00
Dominican Republic,do,18.735693,-70.162651,18708,525,11736,2020-06-06 12:00:12.964334+00:00
Diamond Princess,01,40.86429589999999,-73.9614914,712,14,653,2020-06-06 12:00:17.236593+00:00
Togo,tg,36.4197574,-98.76481059999999,485,13,240,2020-06-06 12:00:17.661312+00:00
Comoros,km,-11.6455,43.3333,132,2,55,2020-06-06 12:00:18.754941+00:00
Suriname,sr,3.919305,-56.027783,91,1,9,2020-06-06 12:00:19.055060+00:00
MS Zaandam,03,0.0,0.0,13,4,0,2020-06-06 12:00:20.265861+00:00
Montserrat,ms,16.742498,-62.187366,11,1,10,2020-06-06 12:00:20.320907+00:00
French Guiana,gf,3.933889,-53.125782,589,1,321,2020-06-06 12:00:30.570624+00:00
Antigua and Barbuda,ag,17.060816,-61.796428,26,3,20,2020-06-06 12:00:33.333792+00:00
Gambia,gm,13.443182,-15.310139,26,1,21,2020-06-06 12:00:33.387750+00:00
St. Vincent Grenadines,vc,12.984305,-61.287228,26,0,15,2020-06-06 12:00:33.440125+00:00
British Virgin Islands,vg,18.420695,-64.639968,8,1,7,2020-06-06 12:00:20.391872+00:00
Sao Tome and Principe,st,0.18636,6.613080999999999,499,12,68,2020-06-06 12:00:30.742990+00:00
Kazakhstan,kz,48.019573,66.923684,12511,52,6903,2020-06-06 12:00:13.450027+00:00
Sri Lanka,lk,7.873053999999999,80.77179699999999,1804,11,891,2020-06-06 12:00:15.807258+00:00
Réunion,re,-21.115141,55.536384,480,1,411,2020-06-06 12:00:30.830840+00:00
USS Theodore Roosevelt,09,0.0,0.0,1102,1,53,2020-06-06 12:00:16.582573+00:00
Bhutan,bt,27.514162,90.433601,48,0,11,2020-06-06 12:00:19.440579+00:00
Martinique,mq,14.641528,-61.024174,202,14,98,2020-06-06 12:00:31.655388+00:00
Somaliland,05,9.411743399999999,46.8252838,359,22,33,2020-06-06 12:00:17.888920+00:00
Sint Eustatius,bq,17.4890306,-62.973555,2,0,2,2020-06-06 12:00:20.549748+00:00
Barbados,bb,13.193887,-59.543198,92,7,81,2020-06-06 12:00:19.011720+00:00
Bosnia and Herzegovina,ba,43.915886,17.679076,2606,159,1968,2020-06-06 12:00:28.285033+00:00
United Kingdom,gb,55.378051,-3.435973,283311,40261,0,2020-06-06 12:00:06.291568+00:00
France,fr,46.227638,2.213749,153055,29111,70504,2020-06-06 12:00:06.717138+00:00
Qatar,qa,25.354826,51.183884,67195,51,42527,2020-06-06 12:00:07.135221+00:00
Netherlands,nl,52.132633,5.291265999999999,47152,6005,0,2020-06-06 12:00:07.301128+00:00
Colombia,co,4.570868,-74.297333,36635,1145,13638,2020-06-06 12:00:12.217244+00:00
Angola,ao,-11.202692,17.873887,86,4,21,2020-06-06 12:00:19.100753+00:00
Artsakh,12,39.796249,46.6550799,57,0,31,2020-06-06 12:00:19.433339+00:00
Abkhazia,06,43.0015544,41.023407,35,1,27,2020-06-06 12:00:19.614634+00:00
Fiji,fj,-17.713371,178.065032,18,0,18,2020-06-06 12:00:20.114909+00:00
Ukraine,ua,48.379433,31.1655799,26514,777,11812,2020-06-06 12:00:12.550231+00:00
Bolivia,bo,-16.290154,-63.58865299999999,12728,427,1739,2020-06-06 12:00:13.396431+00:00
Falkland Islands,fk,-51.796253,-59.523613,13,0,13,2020-06-06 12:00:20.195297+00:00
Coral Princess,11,26.648165,-82.03541899999999,12,2,0,2020-06-06 12:00:20.271158+00:00
Vatican City,va,41.902916,12.453389,12,0,2,2020-06-06 12:00:20.277820+00:00
Honduras,hn,15.199999,-86.241905,5971,248,677,2020-06-06 12:00:14.415557+00:00
Puerto Rico,pr,18.220833,-66.590149,4620,141,850,2020-06-06 12:00:14.507355+00:00
Luxembourg,lu,49.815273,6.129582999999999,4032,110,3885,2020-06-06 12:00:14.729092+00:00
Seychelles,sc,-4.679574,55.491977,11,0,11,2020-06-06 12:00:20.352122+00:00
Lesotho,ls,-29.609988,28.233608,4,0,2,2020-06-06 12:00:20.474620+00:00
Anguilla,ai,18.220554,-63.06861499999999,3,0,3,2020-06-06 12:00:20.511909+00:00
Slovakia,sk,48.669026,19.699024,1528,28,1379,2020-06-06 12:00:15.902399+00:00
Equatorial Guinea,gq,1.650801,10.267895,1306,12,200,2020-06-06 12:00:16.234422+00:00
Taiwan,tw,23.69781,120.960515,443,7,429,2020-06-06 12:00:17.743794+00:00
