location,country_code,latitude,longitude,confirmed,dead,recovered,updated
Russia,ru,61.52401,105.318756,3998216,77598,3493886,2021-02-09 19:45:08.419042+00:00
Austria,at,47.516231,14.550072,426093,8071,404676,2021-02-09 19:45:08.419042+00:00
Italy,it,41.87194,12.56738,2655319,92002,2149350,2021-02-09 19:45:08.419042+00:00
Germany,de,51.165691,10.451526,2298389,62862,2057300,2021-02-09 19:45:08.419042+00:00
Saudi Arabia,sa,23.885942,45.079162,370987,6410,362062,2021-02-09 19:45:08.419042+00:00
Argentina,ar,-38.416097,-63.61667199999999,1985501,49398,1786178,2021-02-09 19:45:08.419042+00:00
Poland,pl,51.919438,19.145136,1556685,39360,1317474,2021-02-09 19:45:08.419042+00:00
Chile,cl,-35.675147,-71.542969,758189,19084,717308,2021-02-09 19:45:08.419042+00:00
Ecuador,ec,-1.831239,-78.18340599999999,258607,15013,220398,2021-02-09 19:45:08.419042+00:00
Canada,ca,56.130366,-106.346771,809969,20884,749789,2021-02-09 19:45:08.419042+00:00
France,fr,46.227638,2.213749,3341365,79423,233993,2021-02-09 19:45:08.419042+00:00
Spain,es,40.46366700000001,-3.74922,3005487,63061,0,2021-02-09 19:45:08.419042+00:00
Peru,pe,-9.189967,-75.015152,1191221,42467,1100053,2021-02-09 19:45:08.419042+00:00
Czechia,cz,49.81749199999999,15.472962,1045132,17497,932156,2021-02-09 19:45:08.419042+00:00
Belgium,be,50.503887,4.469936,726483,21423,49983,2021-02-09 19:45:08.419042+00:00
Morocco,ma,31.791702,-7.092619999999999,476125,8424,456032,2021-02-09 19:45:08.419042+00:00
UAE,ae,23.424076,53.847818,332603,947,313060,2021-02-09 19:45:08.419042+00:00
Nepal,np,28.394857,84.12400799999999,272215,2047,268431,2021-02-09 19:45:08.419042+00:00
Azerbaijan,az,40.143105,47.576927,231362,3163,225678,2021-02-09 19:45:08.419042+00:00
Mexico,mx,23.634501,-102.552784,1936013,166731,1501580,2021-02-09 19:45:08.419042+00:00
Panama,pa,8.537981,-80.782127,327654,5506,294410,2021-02-09 19:45:08.419042+00:00
Bulgaria,bg,42.733883,25.48583,224849,9420,194055,2021-02-09 19:45:08.419042+00:00
India,in,20.593684,78.96288,10858300,155280,10559604,2021-02-09 19:45:08.419042+00:00
South Africa,za,-30.559482,22.937506,1477511,103,1363947,2021-02-09 19:49:01.044488+00:00
Australia,au,-25.274398,133.775136,28755,909,25961,2021-01-22 15:45:10.812873+00:00
Brazil,br,-14.235004,-51.92528,9560362,232431,8447645,2021-02-09 19:45:08.419042+00:00
Colombia,co,4.570868,-74.297333,2161462,56290,2034228,2021-02-09 19:45:08.419042+00:00
Croatia,hr,45.1,15.2000001,235756,5224,228203,2021-02-09 19:45:08.419042+00:00
Ukraine,ua,48.379433,31.1655799,1249646,23771,1084590,2021-02-09 19:45:08.419042+00:00
UK,gb,55.378051,-3.435973,3972148,113850,1983650,2021-02-09 19:45:08.419042+00:00
Indonesia,id,-0.789275,113.921327,1174779,31976,973452,2021-02-09 19:45:08.419042+00:00
Georgia,ge,32.1656221,-82.9000751,263057,3306,254916,2021-02-09 19:45:08.419042+00:00
Turkey,tr,38.963745,35.243322,2548195,26998,2437382,2021-02-09 19:45:08.419042+00:00
Jordan,jo,36.1500042,-95.9882368,338322,4395,322148,2021-02-09 19:45:08.419042+00:00
Netherlands,nl,52.132633,5.291265999999999,1009725,14511,0,2021-02-09 19:45:08.419042+00:00
Iran,ir,32.427908,53.688046,1481396,58625,1266518,2021-02-09 19:45:08.419042+00:00
Portugal,pt,39.39987199999999,-8.224454,770502,14557,628078,2021-02-09 19:45:08.419042+00:00
Hungary,hu,47.162494,19.5033041,378734,13249,283282,2021-02-09 19:45:08.419042+00:00
Romania,ro,45.943161,24.96676,749434,19056,695398,2021-02-09 19:45:08.419042+00:00
Lithuania,lt,55.169438,23.881275,187421,2972,140448,2021-02-09 19:45:08.419042+00:00
Egypt,eg,26.820553,30.802498,170207,9699,132698,2021-02-09 19:45:08.419042+00:00
Guatemala,gt,15.783471,-90.23075899999999,162295,5816,148133,2021-02-06 15:30:08.744184+00:00
Dominican Republic,do,18.735693,-70.162651,224538,2864,169843,2021-02-09 19:45:08.419042+00:00
Afghanistan,af,33.93911,67.709953,54559,2373,46912,2021-01-22 15:45:10.812873+00:00
Myanmar,mm,21.916221,95.955974,136591,3031,120543,2021-01-22 15:45:10.812873+00:00
Ghana,gh,7.946527,-1.023194,59480,361,56706,2021-01-22 15:45:10.812873+00:00
Paraguay,py,-23.442503,-58.443832,125518,2570,100848,2021-01-22 15:45:10.812873+00:00
Qatar,qa,25.354826,51.183884,148521,248,144619,2021-01-22 15:45:10.812873+00:00
Libya,ly,26.3351,17.228331,112540,1737,90952,2021-01-22 15:45:10.812873+00:00
Puerto Rico,pr,18.220833,-66.590149,80590,1703,0,2021-01-17 18:15:05.170138+00:00
Nigeria,ng,9.081999,8.675277,116655,1485,93646,2021-01-22 15:45:10.812873+00:00
Algeria,dz,28.033886,1.659626,104852,2853,71343,2021-01-22 15:45:10.812873+00:00
Kenya,ke,-0.023559,37.906193,99769,1740,82866,2021-01-22 15:45:10.812873+00:00
North Macedonia,mk,41.608635,21.745275,89817,2754,75387,2021-01-22 15:45:10.812873+00:00
Kyrgyzstan,kg,41.20438,74.766098,83703,1396,79664,2021-01-22 15:45:10.812873+00:00
Uzbekistan,uz,41.377491,64.585262,78272,620,76752,2021-01-22 15:45:10.812873+00:00
Bahrain,bh,26.0667,50.5577,98878,366,95594,2021-01-22 15:45:10.812873+00:00
South Korea,kr,35.907757,127.766922,74262,1328,61415,2021-01-22 15:45:10.812873+00:00
Singapore,sg,1.352083,103.819836,59250,29,58983,2021-01-22 15:45:10.812873+00:00
Albania,al,41.153332,20.168331,69916,1296,42426,2021-01-22 15:45:10.812873+00:00
Slovakia,sk,48.669026,19.699024,265807,5382,248386,2021-02-09 19:45:08.419042+00:00
Oman,om,21.4735329,55.975413,132486,1517,124730,2021-01-22 15:45:10.812873+00:00
Montenegro,me,42.708678,19.37439,56998,762,47974,2021-01-22 15:45:10.812873+00:00
Slovenia,si,46.151241,14.995463,174364,3654,156266,2021-02-09 19:45:08.419042+00:00
El Salvador,sv,13.794185,-88.89653,52672,1540,46370,2021-01-22 15:45:10.812873+00:00
Tunisia,tn,33.886917,9.537499,217753,7257,175340,2021-02-09 19:45:08.419042+00:00
Kuwait,kw,29.31166,47.481766,172996,975,162711,2021-02-09 19:45:08.419042+00:00
Palestine,ps,31.952162,35.233154,161559,1867,151690,2021-02-05 15:30:09.177419+00:00
Lebanon,lb,33.854721,35.862285,324866,3737,215359,2021-02-09 19:45:08.419042+00:00
Malaysia,my,4.210484,101.975766,248316,909,196566,2021-02-09 19:45:08.419042+00:00
Bolivia,bo,-16.290154,-63.58865299999999,229187,10864,169415,2021-02-09 19:45:08.419042+00:00
Kazakhstan,kz,48.019573,66.923684,197033,2540,178044,2021-02-09 19:45:08.419042+00:00
Greece,gr,39.074208,21.824312,150479,5570,138748,2021-01-22 15:45:10.812873+00:00
Honduras,hn,15.199999,-86.241905,138044,3422,60392,2021-01-22 15:45:10.812873+00:00
Venezuela,ve,6.42375,-66.58973,122260,1129,114299,2021-01-22 15:45:10.812873+00:00
Bosnia and Herzegovina,ba,43.915886,17.679076,119420,4555,90691,2021-01-22 15:45:10.812873+00:00
China,cn,35.86166,104.195397,88804,4635,82495,2021-01-22 15:45:10.812873+00:00
Andorra,ad,42.506285,1.521801,9379,93,8474,2021-01-22 15:45:10.812873+00:00
Bahamas,bs,25.03428,-77.39627999999999,8088,175,6720,2021-01-22 15:45:10.812873+00:00
Guyana,gy,4.860416,-58.93018,7067,170,6277,2021-01-22 15:45:10.812873+00:00
Estonia,ee,58.595272,25.0136071,39701,358,29167,2021-01-22 15:45:10.812873+00:00
Cameroon,cm,7.369721999999999,12.354722,28010,455,26861,2021-01-22 15:45:10.812873+00:00
Cuba,cu,21.521757,-77.781167,20060,188,15311,2021-01-22 15:45:10.812873+00:00
Cabo Verde,cv,16.5388,-23.0418,13307,122,12517,2021-01-22 15:45:10.812873+00:00
Malawi,mw,-13.254308,34.301525,16049,396,6314,2021-01-22 15:45:10.812873+00:00
Uruguay,uy,-32.522779,-55.765835,34992,347,26927,2021-01-22 15:45:10.812873+00:00
Maldives,mv,3.202778,73.22068,14765,50,13683,2021-01-22 15:45:10.812873+00:00
Tajikistan,tj,38.861034,71.276093,13308,90,13218,2021-01-22 15:45:10.812873+00:00
Haiti,ht,18.971187,-72.285215,11035,243,8979,2021-01-22 15:45:10.812873+00:00
Dominica,dm,15.414999,-61.37097600000001,113,0,104,2021-01-22 15:45:10.812873+00:00
Timor-Leste,tl,-8.874217,125.727539,53,0,49,2021-01-22 15:45:10.812873+00:00
Zambia,zm,-13.133897,27.849332,43333,610,32667,2021-01-22 15:45:10.812873+00:00
Falkland Islands,fk,-51.796253,-59.523613,35,0,29,2021-01-22 15:45:10.812873+00:00
Botswana,bw,-22.328474,24.684866,19654,105,15911,2021-01-22 15:45:10.812873+00:00
Eswatini,sz,-26.522503,31.465866,14017,441,8822,2021-01-22 15:45:10.812873+00:00
Thailand,th,15.870032,100.992541,13104,71,10224,2021-01-22 15:45:10.812873+00:00
Fiji,fj,-17.713371,178.065032,55,2,53,2021-01-22 15:45:10.812873+00:00
Finland,fi,61.92410999999999,25.7481511,41915,638,31000,2021-01-22 15:45:10.812873+00:00
Uganda,ug,1.373333,32.290275,38935,317,13699,2021-01-22 15:45:10.812873+00:00
Namibia,na,38.911651,-77.0412109,31515,310,29230,2021-01-22 15:45:10.812873+00:00
Jamaica,jm,18.109581,-77.297508,14658,332,11833,2021-01-22 15:45:10.812873+00:00
Cyprus,cy,35.126413,33.429859,29636,178,2057,2021-01-22 15:45:10.812873+00:00
Senegal,sn,14.497401,-14.452362,24209,561,20089,2021-01-22 15:45:10.812873+00:00
Madagascar,mg,-18.766947,46.869107,18301,273,17609,2021-01-22 15:45:10.812873+00:00
Guinea,gn,9.945587,-9.696645,14262,81,13566,2021-01-22 15:45:10.812873+00:00
Syria,sy,34.80207499999999,38.996815,13398,866,6842,2021-01-22 15:45:10.812873+00:00
Rwanda,rw,-1.940278,29.873888,12170,162,7973,2021-01-22 15:45:10.812873+00:00
Belize,bz,17.189877,-88.49765,11676,289,10962,2021-01-22 15:45:10.812873+00:00
Hong Kong,hk,22.3193039,114.1693611,9929,168,8948,2021-01-22 15:45:10.812873+00:00
Gabon,ga,-0.803689,11.609444,10120,66,9809,2021-01-22 15:45:10.812873+00:00
Mali,ml,17.570692,-3.996166,7911,320,5666,2021-01-22 15:45:10.812873+00:00
Congo,cg,-4.038333,21.758664,7794,117,5846,2021-01-22 15:45:10.812873+00:00
Latvia,lv,56.879635,24.603189,59586,1076,46981,2021-01-22 15:45:10.812873+00:00
DRC,cd,-4.038333,21.758664,21597,647,14875,2021-01-22 15:45:10.812873+00:00
Angola,ao,-11.202692,17.873887,19177,448,17176,2021-01-22 15:45:10.812873+00:00
French Polynesia,pf,-17.679742,-149.406843,17820,128,4842,2021-01-22 15:45:10.812873+00:00
Malta,mt,35.937496,14.375416,16423,248,13435,2021-01-22 15:45:10.812873+00:00
Trinidad and Tobago,tt,10.691803,-61.222503,7450,133,6974,2021-01-22 15:45:10.812873+00:00
Mauritania,mr,21.00789,-10.940835,16266,410,14970,2021-01-22 15:45:10.812873+00:00
Diamond Princess,01,40.86429589999999,-73.9614914,712,13,699,2021-01-22 15:45:10.812873+00:00
Equatorial Guinea,gq,1.650801,10.267895,5401,86,5197,2021-01-22 15:45:10.812873+00:00
U.S. Virgin Islands,vi,18.335765,-64.896335,2260,24,2120,2021-01-17 18:15:05.170138+00:00
Vietnam,vn,14.058324,108.277199,1548,35,1411,2021-01-22 15:45:10.812873+00:00
Sierra Leone,sl,8.460555,-11.779889,3081,77,2143,2021-01-22 15:45:10.812873+00:00
Yemen,ye,15.552727,48.516388,2115,614,1423,2021-01-22 15:45:10.812873+00:00
Luxembourg,lu,49.815273,6.129582999999999,49319,562,46499,2021-01-22 15:45:10.812873+00:00
Gibraltar,gi,36.140751,-5.353585,3881,59,3033,2021-01-22 15:45:10.812873+00:00
Guinea-Bissau,gw,11.803749,-15.180413,2510,45,2405,2021-01-22 15:45:10.812873+00:00
Taiwan,tw,23.69781,120.960515,881,7,777,2021-01-22 15:45:10.812873+00:00
Aruba,aw,12.52111,-69.968338,6623,52,6013,2021-01-22 15:45:10.812873+00:00
Curaçao,cw,12.16957,-68.99002,4537,20,4408,2021-01-22 15:45:10.812873+00:00
Suriname,sr,3.919305,-56.027783,7880,146,7027,2021-01-22 15:45:10.812873+00:00
Somaliland,05,9.411743399999999,46.8252838,1354,47,1200,2021-01-17 18:15:05.170138+00:00
Iceland,is,64.963051,-19.020835,5981,29,5868,2021-01-22 15:45:10.812873+00:00
CAR,cf,6.611110999999999,20.939444,4974,63,4885,2021-01-22 15:45:10.812873+00:00
Togo,tg,8.619543,0.824782,4505,74,3901,2021-01-22 15:45:10.812873+00:00
South Sudan,ss,6.876991899999999,31.3069788,3788,64,3542,2021-01-22 15:45:10.812873+00:00
Chad,td,15.454166,18.732207,3065,114,2193,2021-01-22 15:45:10.812873+00:00
Bermuda,bm,32.3078,-64.7505,684,12,611,2021-01-22 15:45:10.812873+00:00
Belarus,by,53.709807,27.953389,260060,1801,248064,2021-02-09 19:45:08.419042+00:00
Liechtenstein,li,47.166,9.555373,2432,52,2322,2021-01-22 15:45:10.812873+00:00
Liberia,lr,6.428055,-9.429499000000002,1912,84,1714,2021-01-22 15:45:10.812873+00:00
Burundi,bi,-3.373056,29.918886,1358,2,773,2021-01-22 15:45:10.812873+00:00
Bhutan,bt,27.514162,90.433601,851,1,679,2021-01-22 15:45:10.812873+00:00
Djibouti,dj,11.825138,42.590275,5916,61,5833,2021-01-22 15:45:10.812873+00:00
Faeroe Islands,fo,61.89263500000001,-6.9118061,652,1,644,2021-01-22 15:45:10.812873+00:00
Somalia,so,5.152149,46.199616,4744,130,3666,2021-01-22 15:45:10.812873+00:00
Niger,ne,17.607789,8.081666,4267,147,3357,2021-01-22 15:45:10.812873+00:00
New Zealand,nz,-40.900557,174.885971,2276,25,2178,2021-01-22 15:45:10.812873+00:00
Sint Maarten,sx,18.04248,-63.05483,1708,27,1554,2021-01-22 15:45:10.812873+00:00
Jersey,je,49.2137711,-2.1357662,2908,56,2561,2021-01-17 18:15:05.170138+00:00
Benin,bj,9.30769,2.315834,3582,48,3284,2021-01-22 15:45:10.812873+00:00
San Marino,sm,43.94236,12.457777,2861,65,2597,2021-01-22 15:45:10.812873+00:00
Monaco,mc,43.73841760000001,7.424615799999999,1287,9,1058,2021-01-22 15:45:10.812873+00:00
Papua New Guinea,pg,-6.314992999999999,143.95555,835,9,790,2021-01-22 15:45:10.812873+00:00
Lesotho,ls,-29.609988,28.233608,7555,113,1993,2021-01-22 15:45:10.812873+00:00
St. Vincent Grenadines,vc,12.984305,-61.287228,690,2,126,2021-01-22 15:45:10.812873+00:00
Saint Pierre Miquelon,pm,46.8852,-56.3159,16,0,16,2021-01-22 15:45:10.812873+00:00
Marshall Islands,mh,7.131474,171.184478,4,0,4,2021-01-22 15:45:10.812873+00:00
Japan,jp,36.204824,138.252924,406766,6476,368813,2021-02-09 19:45:08.419042+00:00
Guadeloupe,gp,16.265,-61.55099999999999,8980,154,2242,2021-01-22 15:45:10.812873+00:00
Gambia,gm,13.443182,-15.310139,3958,128,3703,2021-01-22 15:45:10.812873+00:00
Cayman Islands,ky,19.3133,-81.2546,382,2,346,2021-01-22 15:45:10.812873+00:00
Greenland,gl,71.706936,-42.604303,30,0,29,2021-01-22 15:45:10.812873+00:00
Sao Tome and Principe,st,0.18636,6.613080999999999,1171,17,995,2021-01-22 15:45:10.812873+00:00
Saint Martin,mf,18.0708298,-63.0500809,1146,12,1006,2021-01-22 15:45:10.812873+00:00
Grenada,gd,12.1165,-61.67899999999999,139,1,129,2021-01-22 15:45:10.812873+00:00
St. Barth,bl,17.9,-62.833333,300,1,204,2021-01-22 15:45:10.812873+00:00
British Virgin Islands,vg,18.420695,-64.639968,114,1,95,2021-01-22 15:45:10.812873+00:00
Sint Eustatius,bq,17.4890306,-62.973555,18,0,18,2021-01-17 18:15:05.170138+00:00
New Caledonia,nc,-20.904305,165.618042,44,0,43,2021-01-22 15:45:10.812873+00:00
Laos,la,19.85627,102.495496,41,0,41,2021-01-22 15:45:10.812873+00:00
Vatican City,va,41.902916,12.453389,27,0,15,2021-01-22 15:45:10.812873+00:00
Coral Princess,11,20.5331399,-86.9387546,12,3,0,2021-01-17 18:15:05.170138+00:00
Anguilla,ai,18.220554,-63.06861499999999,15,0,15,2021-01-22 15:45:10.812873+00:00
Samoa,ws,-13.759029,-172.104629,2,0,2,2021-01-22 15:45:10.812873+00:00
French Guiana,gf,3.933889,-53.125782,15431,76,9995,2021-01-22 15:45:10.812873+00:00
Seychelles,sc,-4.679574,55.491977,972,3,681,2021-01-22 15:45:10.812873+00:00
Mayotte,yt,-12.8275,45.166244,7158,58,2964,2021-01-22 15:45:10.812873+00:00
Tanzania,tz,-6.369028,34.888822,509,21,183,2021-01-22 15:45:10.812873+00:00
Brunei ,bn,4.535277,114.727669,175,3,169,2021-01-22 15:45:10.812873+00:00
Montserrat,ms,16.742498,-62.187366,13,1,12,2021-01-22 15:45:10.812873+00:00
Moldova,md,47.411631,28.369885,165663,3573,154444,2021-02-09 15:45:08.145081+00:00
Martinique,mq,14.641528,-61.024174,6327,44,98,2021-01-22 15:45:10.812873+00:00
Macao,mo,22.198745,113.543873,47,0,46,2021-01-22 15:45:10.812873+00:00
Solomon Islands,sb,-9.64571,160.156194,17,0,10,2021-01-22 15:45:10.812873+00:00
Vanuatu,vu,-15.376706,166.959158,1,0,1,2021-01-22 15:45:10.812873+00:00
Réunion,re,-21.115141,55.536384,9701,45,9261,2021-01-22 15:45:10.812873+00:00
Barbados,bb,13.193887,-59.543198,1156,9,493,2021-01-22 15:45:10.812873+00:00
Guernsey,gg,49.4481982,-2.58949,309,13,288,2021-01-17 18:15:05.170138+00:00
Saint Lucia,lc,13.909444,-60.978893,755,10,412,2021-01-22 15:45:10.812873+00:00
Isle of Man,im,54.236107,-4.548056,432,25,357,2021-01-22 15:45:10.812873+00:00
Saint Kitts and Nevis,kn,17.357822,-62.782998,35,0,33,2021-01-22 15:45:10.812873+00:00
United States,us,37.09024,-95.712891,27743060,477532,17560236,2021-02-09 19:45:08.419042+00:00
Iraq,iq,33.223191,43.679291,632257,13134,602018,2021-02-09 19:45:08.419042+00:00
Norway,no,60.47202399999999,8.468945999999999,60259,544,49835,2021-01-22 15:45:10.812873+00:00
Nicaragua,ni,12.865416,-85.207229,6204,168,4225,2021-01-22 15:45:10.812873+00:00
Philippines,ph,12.879721,121.774017,540227,11296,499764,2021-02-09 19:45:08.419042+00:00
Switzerland,ch,46.818188,8.227511999999999,536516,9681,317600,2021-02-09 19:45:08.419042+00:00
Cambodia,kh,12.565679,104.990963,456,0,399,2021-01-22 15:45:10.812873+00:00
Sri Lanka,lk,7.873053999999999,80.77179699999999,56422,276,48617,2021-01-22 15:45:10.812873+00:00
Northern Cyprus,00,35.2480359,33.6577243,1850,11,1602,2021-01-17 18:15:05.170138+00:00
Comoros,km,-11.6455,43.3333,2082,62,1262,2021-01-22 15:45:10.812873+00:00
Antigua and Barbuda,ag,17.060816,-61.796428,192,6,162,2021-01-22 15:45:10.812873+00:00
Denmark,dk,56.26392,9.501785,202417,2244,193917,2021-02-09 19:45:08.419042+00:00
Eritrea,er,15.179384,39.782334,1913,6,1304,2021-01-22 15:45:10.812873+00:00
Mozambique,mz,-18.665695,35.529562,30848,290,19858,2021-01-22 15:45:10.812873+00:00
Mongolia,mn,46.862496,103.846656,1592,2,1097,2021-01-22 15:45:10.812873+00:00
MS Zaandam,03,0.0,0.0,9,2,7,2021-01-22 15:45:10.812873+00:00
Sweden,se,60.12816100000001,18.643501,596174,12188,0,2021-02-09 19:45:08.419042+00:00
Serbia,rs,44.016521,21.005859,411855,4154,31536,2021-02-09 19:45:08.419042+00:00
Bangladesh,bd,23.684994,90.356331,538765,8229,484573,2021-02-09 19:45:08.419042+00:00
Artsakh,12,26.0434384,-80.2777081,1130,30,337,2021-01-17 18:15:05.170138+00:00
Costa Rica,cr,9.748916999999999,-83.753428,197435,2692,158283,2021-02-09 19:45:08.419042+00:00
Zimbabwe,zw,-19.015438,29.154857,30047,917,19569,2021-01-22 15:45:10.812873+00:00
Sudan,sd,12.862807,30.217636,26279,1603,15688,2021-01-22 15:45:10.812873+00:00
USS Theodore Roosevelt,09,0.0,0.0,1102,1,751,2021-01-17 18:15:05.170138+00:00
Northern Mariana Islands ,mp,15.0979,145.6739,122,2,32,2021-01-17 18:15:05.170138+00:00
Pakistan,pk,30.375321,69.34511599999999,556519,12066,512943,2021-02-09 19:45:08.419042+00:00
Armenia,am,40.069099,45.038189,168300,3126,160169,2021-02-09 19:45:08.419042+00:00
Kosovo,xk,42.6026359,20.902977,55498,1405,48990,2021-01-17 18:15:05.170138+00:00
Turks and Caicos,tc,21.694025,-71.797928,1193,7,954,2021-01-22 15:45:10.812873+00:00
Ethiopia,et,9.145000000000001,40.489673,132326,2057,118006,2021-01-22 15:45:10.812873+00:00
Ivory Coast,ci,7.539988999999999,-5.547079999999999,25751,142,24119,2021-01-22 15:45:10.812873+00:00
Mauritius,mu,-20.348404,57.55215200000001,556,10,518,2021-01-22 15:45:10.812873+00:00
Abkhazia,06,43.0015544,41.023407,7504,100,5545,2021-01-17 18:15:05.170138+00:00
Guam,gu,13.444304,144.793731,7257,121,6707,2021-01-17 18:15:05.170138+00:00
Ireland,ie,53.1423672,-7.692053599999999,204940,3752,23364,2021-02-09 19:45:08.419042+00:00
Burkina Faso,bf,12.238333,-1.561593,9719,106,7748,2021-01-22 15:45:10.812873+00:00
Israel,il,31.046051,34.851612,700479,5192,625167,2021-02-09 19:45:08.419042+00:00
